이름,상권업종소분류명,표준산업분류명,지번주소,건물명,도로명주소,층정보,호정보,경도,위도,휴무일,휴무 간격,여는시간,닫는시간,라스트오더,비고
민진로스팅,카페,커피 전문점,부산광역시 연제구 거제동 1-7,대승아이티빌딩,부산광역시 연제구 거제대로 296,1,,129.0789179,35.19213441,,,,,,
신바리스타신Barista,카페,커피 전문점,부산광역시 기장군 일광읍 삼성리 773,이편한세상일광,부산광역시 기장군 일광읍 해빛2로 21,,,129.2261848,35.26905753,,,,,,
어바웃타임,카페,기타 비알코올 음료점업,부산광역시 부산진구 전포동 313-82,,부산광역시 부산진구 전포대로210번길 24-9,2,,129.0668603,35.15512302,,,,,,
이디야 홈플러스서부산점,카페,커피 전문점,부산광역시 사상구 괘법동 529-1,,부산광역시 사상구 광장로 7,1,,128.9777212,35.16433455,,,,,,
카페캔버스,카페,커피 전문점,부산광역시 사하구 하단동 900-1,,부산광역시 사하구 동매로15번길 22,1,,128.9602039,35.10474471,,,,,,
커피스토어 시청점,카페,커피 전문점,부산광역시 연제구 연산동 1361-13,,부산광역시 연제구 중앙대로1043번길 24,1,,129.0765973,35.1816127,,,,,,
까페숲,카페,커피 전문점,부산광역시 금정구 청룡동 산 2-5,,부산광역시 금정구 범어사로 259,,,129.0729579,35.28235155,,,,,,
체리,카페,기타 비알코올 음료점업,부산광역시 부산진구 범천동 837-47,,부산광역시 부산진구 골드테마길 2-7,,,129.0602619,35.14191626,,,,,,
카페심플,카페,커피 전문점,부산광역시 서구 서대신동3가 254-10,,부산광역시 서구 망양로 36-1,1,,129.0140925,35.11371096,,,,,,
더리터 동서대경남정보대점,카페,커피 전문점,부산광역시 사상구 주례동 74-22,,부산광역시 사상구 냉정로 116,1,,129.0126006,35.14935017,,,,,,
카페더흄,카페,커피 전문점,부산광역시 해운대구 우동 1514,센텀리더스마크,부산광역시 해운대구 APEC로 17,,,129.1324182,35.16592666,,,,,,
알베로,카페,커피 전문점,부산광역시 동래구 안락동 470-65,,부산광역시 동래구 명안로18번길 129,2,,129.1113771,35.19759227,,,,,,
태평,카페,커피 전문점,부산광역시 서구 충무동1가 23-2,태평빌딩,부산광역시 서구 해안새벽시장길 18,,,129.0251693,35.09553888,,,,,,
헤이유,카페,커피 전문점,부산광역시 수영구 광안동 171-39,,부산광역시 수영구 수영로554번가길 26,1,,129.1146706,35.15353167,,,,,,
투썸플레이스 정관점,카페,커피 전문점,부산광역시 기장군 정관읍 매학리 714-14,,부산광역시 기장군 정관읍 정관8로 14,1,,129.1774682,35.32289441,,,,,,
동백제니스상가B107,카페,커피 전문점,부산광역시 해운대구 우동 1544,해운대동백두산위브더제니스,부산광역시 해운대구 해운대로 540,,,129.1507021,35.15972783,,,,,,
이나커피,카페,커피 전문점,부산광역시 사하구 다대동 1552-15,,부산광역시 사하구 다대로 690,3,,128.9660549,35.04835257,,,,,,
탱고탱고콜라텍매매점,카페,기타 비알코올 음료점업,부산광역시 중구 남포동6가 3,신천지상가,부산광역시 중구 자갈치로 33,,,129.0278162,35.09704464,,,,,,
카페당리,카페,커피 전문점,부산광역시 강서구 대저1동 319-11,일부호,부산광역시 강서구 대저중앙로 373,1,,128.9878311,35.22076257,,,,,,
초오록,카페,커피 전문점,부산광역시 기장군 일광읍 화전리 541-2,,부산광역시 기장군 일광읍 화용길 103-17,1,,129.2215253,35.28270499,,,,,,
MW커피로스터즈,카페,커피 전문점,부산광역시 기장군 정관읍 용수리 1329-4,신우빌딩,부산광역시 기장군 정관읍 정관로 501-13,,,129.171476,35.32577767,,,,,,
모라커피숍,카페,커피 전문점,부산광역시 사상구 모라동 1046,,부산광역시 사상구 사상로 491,,,128.9878215,35.18839272,,,,,,
하삼동커피 덕포점,카페,커피 전문점,부산광역시 사상구 덕포동 783,,부산광역시 사상구 덕상로 11,,,128.9888202,35.17261481,,,,,,
마잘로스터스,카페,커피 전문점,부산광역시 수영구 남천동 558-6,,부산광역시 수영구 광안해변로 21,1,,129.1125232,35.13752861,,,,,,
할리스커피 부산송도점,카페,커피 전문점,부산광역시 서구 암남동 542-8,,부산광역시 서구 송도해변로 61-1,,,129.0156604,35.07450164,,,,,,
하삼동커피 부경대점,카페,커피 전문점,부산광역시 남구 대연동 518,,부산광역시 남구 용소로 42-1,,,129.1008243,35.13350564,,,,,,
옹쎄,카페,커피 전문점,부산광역시 남구 용호동 367-4,,부산광역시 남구 용호로109번길 28,1,,129.1137954,35.12224085,,,,,,
보나단헤어엔카페,카페,커피 전문점,부산광역시 금정구 남산동 991-3,,부산광역시 금정구 금샘로 489,,,129.0843615,35.26634046,,,,,,
삼진커피 남포점,카페,커피 전문점,부산광역시 중구 창선동2가 45-11,,부산광역시 중구 광복로 30,1,,129.0282641,35.09919096,,,,,,
원플러스원 부평점,카페,커피 전문점,부산광역시 중구 부평동2가 58-2,,부산광역시 중구 흑교로 6,1,,129.0252888,35.09992561,,,,,,
멜라비치,카페,커피 전문점,부산광역시 부산진구 전포동 575,송상현광장내판매시설,부산광역시 부산진구 중앙대로 818,1,,129.0650007,35.16403118,,,,,,
까페M,카페,커피 전문점,부산광역시 부산진구 부전동 22-2,,부산광역시 부산진구 중앙대로 805,1,,129.0632697,35.16370923,,,,,,
다인,카페,커피 전문점,부산광역시 기장군 정관읍 예림리 846-3,,부산광역시 기장군 정관읍 정관로 830,,,129.2028149,35.32422828,,,,,,
자갈치커피상회,카페,커피 전문점,부산광역시 중구 남포동5가 68-3,,부산광역시 중구 자갈치로 55-2,1,,129.0303952,35.09757822,,,,,,
반송187,카페,커피 전문점,부산광역시 해운대구 반송동 187,,부산광역시 해운대구 신반송로182번길 2-15,1,,129.1608676,35.22909667,,,,,,
라라카페,카페,기타 비알코올 음료점업,부산광역시 금정구 서동 218-7,,부산광역시 금정구 반송로 353-1,1,,129.1048695,35.21044784,,,,,,
플라시드,카페,커피 전문점,부산광역시 남구 용호동 954,더블유,부산광역시 남구 분포로 145,,,129.1112202,35.13422606,,,,,,
밤새다방,카페,커피 전문점,부산광역시 연제구 연산동 587-1,웰메이드오피스텔,부산광역시 연제구 거제천로230번길 70,1,,129.0826283,35.1886913,,,,,,
블루샥 연산토곡점,카페,커피 전문점,부산광역시 연제구 연산동 478-14,KL빌딩,부산광역시 연제구 과정로 148,1,,129.1073653,35.18465861,,,,,,
이피씨,카페,커피 전문점,부산광역시 해운대구 좌동 1314-2,화목데파트,부산광역시 해운대구 세실로 64,1,,129.1776666,35.17097876,,,,,,
선유도원,카페,커피 전문점,부산광역시 금정구 선동 314-1,,부산광역시 금정구 상현로 64,,,129.1116475,35.26648891,,,,,,
카페숨,카페,커피 전문점,부산광역시 해운대구 중동 1818,해운대힐스테이트위브,부산광역시 해운대구 좌동순환로433번길 30,1,,129.1777693,35.16083911,,,,,,
까페미소,카페,커피 전문점,부산광역시 수영구 남천동 40-1,,부산광역시 수영구 수영로 493,,,129.1106007,35.15016927,,,,,,
카페0316,카페,커피 전문점,부산광역시 동구 초량동 1152-4,일부,부산광역시 동구 중앙대로 324,2,,129.0454767,35.12496354,,,,,,
컴포즈 부산박물관점,카페,커피 전문점,부산광역시 남구 대연동 879-14,모이세,부산광역시 남구 유엔로157번길 10,1,,129.0935116,35.13066743,,,,,,
모니카,카페,커피 전문점,부산광역시 중구 남포동6가 113-1,,부산광역시 중구 구덕로 87-1,2,,129.0264072,35.09682489,,,,,,
카페여백,카페,커피 전문점,부산광역시 기장군 정관읍 방곡리 425-4,,부산광역시 기장군 정관읍 방곡5로 2-26,1,,129.1857888,35.32320378,,,,,,
온든해,카페,기타 비알코올 음료점업,부산광역시 강서구 대저2동 6149,,부산광역시 강서구 공항로239번길 29,,,128.9416265,35.13059249,,,,,,
카페C-three,카페,커피 전문점,부산광역시 금정구 장전동 613-14,용진마이스터,부산광역시 금정구 식물원로39번길 15,,,129.0840379,35.2240913,,,,,,
신도커피,카페,커피 전문점,부산광역시 영도구 청학동 536,영도신도브래뉴,부산광역시 영도구 태종로 260,,,129.0563601,35.09800558,,,,,,
커피칼럼,카페,커피 전문점,부산광역시 사하구 괴정동 1040-7,,부산광역시 사하구 승학로 242,1,,128.9909152,35.10229752,,,,,,
커피에세이,카페,커피 전문점,부산광역시 동래구 명장동 132-4,,부산광역시 동래구 명안로85번길 5,,,129.1041338,35.20406249,,,,,,
할리스 수영로터리점,카페,커피 전문점,부산광역시 수영구 광안동 50-13,프라임메디칼,부산광역시 수영구 수영로 710-1,2,,129.1172213,35.16769825,,,,,,
디엔컴퍼니,카페,커피 전문점,부산광역시 부산진구 부전동 515-24,,부산광역시 부산진구 부전로 62-1,2,,129.0549561,35.15560496,,,,,,
마미스카페,카페,커피 전문점,부산광역시 동래구 온천동 281-1,,부산광역시 동래구 우장춘로 157-58,,,129.0749148,35.22118417,,,,,,
수림다방,카페,기타 비알코올 음료점업,부산광역시 사상구 감전동 120-68,,부산광역시 사상구 새벽로168번길 63,,,128.9868028,35.15556165,,,,,,
메가엠지씨커피 못골점,카페,커피 전문점,부산광역시 남구 대연동 1272-2,동원로얄듀크,부산광역시 남구 못골로41번길 13,,,129.0863373,35.13581066,,,,,,
제로베이크샵,카페,커피 전문점,부산광역시 부산진구 양정동 276-4,,부산광역시 부산진구 동평로405번길 77,1,,129.0715483,35.17685998,,,,,,
부산진지역자활센터 청년드림커피,카페,커피 전문점,부산광역시 부산진구 부암동 52-6,에스케이텔레콤부산지사,부산광역시 부산진구 신천대로 258,1,,129.0507696,35.16498494,,,,,,
카페마일로,카페,커피 전문점,부산광역시 해운대구 중동 1839,롯데캐슬스타,부산광역시 해운대구 중동2로34번길 15,1,,129.1631569,35.16554364,,,,,,
온어스,카페,커피 전문점,부산광역시 연제구 거제동 676-219,,부산광역시 연제구 해맞이로 67,1,,129.0682659,35.18029544,,,,,,
포그,카페,커피 전문점,부산광역시 부산진구 전포동 204-6,,부산광역시 부산진구 동성로87번길 9,2,,129.0677337,35.15798282,,,,,,
어랏투고 명지오션점,카페,커피 전문점,부산광역시 강서구 명지동 3231,영어도시퀸덤1차,부산광역시 강서구 명지오션시티10로 16,,,128.8967889,35.08639604,,,,,,
연원책방카페,카페,기타 비알코올 음료점업,부산광역시 남구 대연동 503-2,,부산광역시 남구 용소로40번길 4,3,,129.1005937,35.13392417,,,,,,
키쿠피커,카페,커피 전문점,부산광역시 수영구 광안동 774-21,,부산광역시 수영구 수영로 559,1,,129.1124459,35.15576029,,,,,,
유엔커피,카페,커피 전문점,부산광역시 남구 대연동 852-7,,부산광역시 남구 유엔평화로47번길 107,,,129.0980453,35.13079626,,,,,,
속,카페,커피 전문점,부산광역시 부산진구 전포동 683-18,,부산광역시 부산진구 전포대로199번길 40-7,,,129.062902,35.15480301,,,,,,
용용무인카페,카페,커피 전문점,부산광역시 부산진구 초읍동 331-26,,부산광역시 부산진구 성지곡로51번길 1,1,,129.0484115,35.18690506,,,,,,
하삼동커피 동아대병원점,카페,커피 전문점,부산광역시 서구 동대신동3가 553,브라운스톤하이포레,부산광역시 서구 동대로19번길 32,3,,129.0192216,35.1184559,,,,,,
텐퍼센트커피 교대법원점,카페,커피 전문점,부산광역시 연제구 거제동 393-8,,부산광역시 연제구 법원북로83번길 9,,,129.0752812,35.19287267,,,,,,
카페마타마타,카페,커피 전문점,부산광역시 사하구 구평동 518,이편한세상사하2차,부산광역시 사하구 서포로30번길 12,,,128.9844988,35.08278396,,,,,,
카페051 화명코오롱하늘채점,카페,커피 전문점,부산광역시 북구 화명동 2301-8,,부산광역시 북구 화명신도시로 73,1,,129.0098831,35.23059048,,,,,,
발레스,카페,커피 전문점,부산광역시 연제구 연산동 685-7,,부산광역시 연제구 월드컵대로 36-1,,,129.0856026,35.17793439,,,,,,
키튼커피,카페,커피 전문점,부산광역시 부산진구 전포동 653-13,,부산광역시 부산진구 서전로47번길 27,1,,129.0645692,35.1591182,,,,,,
르씨엘드,카페,커피 전문점,부산광역시 기장군 일광읍 칠암리 144-11,,부산광역시 기장군 일광읍 박영준길 15,,,129.2566825,35.29860724,,,,,,
시나브로워크룸,카페,커피 전문점,부산광역시 부산진구 연지동 189-6,,부산광역시 부산진구 동평로235번길 37-3,,,129.0517459,35.17151985,,,,,,
카페사려니숲,카페,커피 전문점,부산광역시 해운대구 좌동 1451-1,락희상가,부산광역시 해운대구 청사포로 16,,,129.1837406,35.16624653,,,,,,
카페론디,카페,커피 전문점,부산광역시 금정구 남산동 17-11,,부산광역시 금정구 금강로 730,1,,129.0892266,35.27266364,,,,,,
카페아담,카페,커피 전문점,부산광역시 금정구 장전동 103-29,신이빌딩,부산광역시 금정구 수림로72번길 26,1,,129.0848269,35.2411905,,,9:00,"일,월 16:00, 나머지 22:00",,
글래드커피,카페,커피 전문점,부산광역시 금정구 장전동 106-2,,부산광역시 금정구 금강로379번길 13,1,,129.0856782,35.24183366,,,9:00,18:00,,
엄마손팥집,카페,기타 비알코올 음료점업,부산광역시 남구 대연동 882-12,,부산광역시 남구 유엔평화로 43,,,129.0922917,35.13100391,,,,,,
오도우,카페,기타 비알코올 음료점업,부산광역시 남구 대연동 314-64,,부산광역시 남구 수영로293번길 30-6,,,129.0979265,35.1377102,,,,,,
투썸플레이스 벡스코점,카페,커피 전문점,부산광역시 해운대구 우동 1507,트럼프월드센텀2차,부산광역시 해운대구 센텀3로 32,,,129.1337504,35.16651597,,,,,,
씨드,카페,커피 전문점,부산광역시 금정구 구서동 203-5,금정산온천레포츠,부산광역시 금정구 구서중앙로15번길 20,1,,129.0890516,35.25386882,,,,,,
웨스턴챔버,카페,커피 전문점,부산광역시 기장군 정관읍 병산리 550-1,,부산광역시 기장군 정관읍 병산로 221-19,,,129.1851499,35.34643706,,,,,,
올라카페,카페,커피 전문점,부산광역시 해운대구 송정동 437-9,,부산광역시 해운대구 송정광어골로 49,,,129.1968,35.17686896,,,,,,
여리지,카페,기타 비알코올 음료점업,부산광역시 금정구 청룡동 462-3,,부산광역시 금정구 범어사로 334-1,,,129.0768498,35.27896856,,,,,,
초록나비,카페,커피 전문점,부산광역시 수영구 수영동 497-14,,부산광역시 수영구 좌수영로83번길 12-1,1,,129.1206839,35.1721434,,,,,,
메가커피 주례삼선병원점,카페,커피 전문점,부산광역시 사상구 주례동 137-3,,부산광역시 사상구 가야대로318번길 14,,,129.0072958,35.15002397,,,,,,
내고향전통찻집,카페,기타 비알코올 음료점업,부산광역시 부산진구 부전동 259-3,,부산광역시 부산진구 서면문화로 8-4,,,129.0581023,35.15853438,,,,,,
커피보이스,카페,커피 전문점,부산광역시 사하구 구평동 494,,부산광역시 사하구 감천항로 515,2,,128.9992849,35.04895381,,,,,,
토리나무,카페,커피 전문점,부산광역시 기장군 철마면 웅천리 산 104-12,,부산광역시 기장군 철마면 곰내길 378,,,129.1687297,35.29993778,,,,,,
죽성드림커피,카페,커피 전문점,부산광역시 기장군 기장읍 죽성리 134-5,,부산광역시 기장군 기장읍 죽성로 326,,,129.2480431,35.24016901,,,,,,
카페반디나무,카페,기타 비알코올 음료점업,부산광역시 북구 덕천동 403-14,,부산광역시 북구 덕천2길 31,1,,129.0070329,35.20940637,,,,,,
카페;오로라,카페,커피 전문점,부산광역시 사하구 하단동 1218,건우리안,부산광역시 사하구 동매로 117,3,,128.9710258,35.10194674,,,,,,
텐퍼센트커피 영도미라주점,카페,커피 전문점,부산광역시 영도구 동삼동 1170,영도일동미라주브라이튼1단지,부산광역시 영도구 동삼북로 20,,,129.0706612,35.08207273,,,,,,
컴포즈커피 수영연수로점,카페,커피 전문점,부산광역시 수영구 광안동 1069-3,광안동일스위트,부산광역시 수영구 망미번영로38번길 104,,,129.1135989,35.1676624,,,,,,
오륙도다방,카페,커피 전문점,부산광역시 남구 용호동 542-14,,부산광역시 남구 용호로 225-1,1,,129.111153,35.1120768,,,,,,
로타리,카페,커피 전문점,부산광역시 동래구 온천동 1423-2,,부산광역시 동래구 미남로 146,1,,129.0698205,35.2069611,,,,,,
디아데마,카페,커피 전문점,부산광역시 부산진구 부전동 537-9,더샵센트럴스타,부산광역시 부산진구 중앙대로666번길 50,2,,129.0603038,35.15184637,,,,,,
하삼동커피 망미점,카페,커피 전문점,부산광역시 수영구 망미동 433-42,,부산광역시 수영구 과정로 69,1,,129.1070282,35.17755441,,,,,,
현커피,카페,커피 전문점,부산광역시 해운대구 우동 1434,선프라자,부산광역시 해운대구 마린시티3로 1,,,129.147573,35.15799009,,,,,,
또그릭,카페,기타 비알코올 음료점업,부산광역시 부산진구 전포동 681-3,,부산광역시 부산진구 서전로46번길 32,1,,129.064718,35.15632206,,,,,,
슬로윈드,카페,커피 전문점,부산광역시 해운대구 송정동 195-3,,부산광역시 해운대구 송정강변로 23,1,,129.2053226,35.18358063,,,,,,
이디야 부산온천장역점,카페,커피 전문점,부산광역시 동래구 온천동 153-12,일부,부산광역시 동래구 온천장로119번길 7,,,129.0843285,35.22128372,,,,,,
투썸플레이스 부산거제점,카페,커피 전문점,부산광역시 연제구 거제동 891-5,,부산광역시 연제구 아시아드대로 101,2,,129.0663505,35.19351207,,,,,,
녹원커피숍,카페,커피 전문점,부산광역시 동래구 안락동 423-14,,부산광역시 동래구 반송로208번길 6,1,,129.0976506,35.19915562,,,,,,
하이안,카페,기타 비알코올 음료점업,부산광역시 부산진구 전포동 687-25,,부산광역시 부산진구 서전로46번길 62-4,,,129.0646109,35.15512534,,,,,,
컴포즈커피 남산점,카페,커피 전문점,부산광역시 금정구 남산동 482-1,명칭없음,부산광역시 금정구 금강로647번길 5,1,,129.0883077,35.26511893,,,,,,
동신,카페,커피 전문점,부산광역시 부산진구 양정동 107-47,,부산광역시 부산진구 연수로 24-1,2,,129.0740494,35.17378026,,,,,,
이안,카페,커피 전문점,부산광역시 연제구 연산동 415-36,,부산광역시 연제구 과정로191번길 38,1,,129.1062708,35.18605642,,,,,,
즐거운식당,카페,기타 비알코올 음료점업,부산광역시 부산진구 부전동 266-12,,부산광역시 부산진구 중앙대로755번길 7,2,,129.0602249,35.16003026,,,,,,
아투,카페,커피 전문점,부산광역시 사하구 신평동 629-1,,부산광역시 사하구 하신번영로157번길 33,,,128.9581122,35.09661376,,,,,,
덕천커피숍,카페,커피 전문점,부산광역시 북구 덕천동 386-15,,부산광역시 북구 만덕대로 76-1,1,,129.0132982,35.21189766,,,,,,
후,카페,커피 전문점,부산광역시 사상구 덕포동 765-5,,부산광역시 사상구 덕상로 67-1,1,,128.989311,35.17744605,,,,,,
크레이저커피 부경대점,카페,비주거용 건물 임대업,부산광역시 남구 대연동 393-1,,부산광역시 남구 용소로34번길 24-12,,,129.0997334,35.13459693,,,,,,
소희다방,카페,기타 비알코올 음료점업,부산광역시 영도구 대교동1가 162,,부산광역시 영도구 태종로 77,,,129.0395662,35.09246777,,,,,,
카페미유,카페,커피 전문점,부산광역시 동래구 온천동 1582-2,,부산광역시 동래구 쇠미로 152-1,,,129.0618757,35.20409586,,,,,,
자르디노203,카페,커피 전문점,부산광역시 수영구 광안동 202-3,,부산광역시 수영구 광남로94번길 8,1,,129.1150647,35.15010941,,,,,,
하삼동커피 괴정뉴코아점,카페,커피 전문점,부산광역시 사하구 괴정동 950-2,괴정어반푸르지오,부산광역시 사하구 사하로 189,,,128.9934974,35.0984611,,,,,,
부자커피숍,카페,커피 전문점,부산광역시 남구 용호동 531-31,,부산광역시 남구 용주로 23,,,129.1123216,35.11316486,,,,,,
설빙 당감점,카페,기타 비알코올 음료점업,부산광역시 부산진구 당감동 304-29,,부산광역시 부산진구 동평로 97,2,,129.0402003,35.16581231,,,,,,
어랏커피,카페,커피 전문점,부산광역시 동래구 안락동 628-1,,부산광역시 동래구 연안로59번길 105,1,,129.1025253,35.19490773,,,,,,
오늘달이참밝네요,카페,커피 전문점,부산광역시 금정구 부곡동 304-1,부곡상가맨션,부산광역시 금정구 부곡로 107,1,,129.0913701,35.22565895,,,,,,
메가엠지씨커피 서면점,카페,커피 전문점,부산광역시 부산진구 부전동 215-1,,부산광역시 부산진구 중앙대로692번길 26,,,129.0606519,35.15433667,,,,,,
트리플에이커피 영도점,카페,커피 전문점,부산광역시 영도구 청학동 217-1,,부산광역시 영도구 해양로 74,1,,129.0628202,35.09633677,,,,,,
에이스커피,카페,커피 및 차류 도매업,부산광역시 금정구 청룡동 43-1,,부산광역시 금정구 남산냇길 132,1,,129.0893101,35.27719494,,,,,,
우리동네순이카페,카페,커피 전문점,부산광역시 서구 남부민동 441-74,,부산광역시 서구 해돋이로 18,1,,129.0197451,35.08322917,,,,,,
퓌어밀쉬,카페,커피 전문점,부산광역시 금정구 구서동 472-24,,부산광역시 금정구 금강로403번길 11,1,,129.0868771,35.24403882,,,,,,
모노모노몬,카페,커피 전문점,부산광역시 부산진구 전포동 504-93,,부산광역시 부산진구 황령대로98번길 53,1,,129.0681354,35.14871202,,,,,,
감성커피부경대점,카페,커피 전문점,부산광역시 남구 대연동 430-1,,부산광역시 남구 용소로 45,,,129.1048669,35.13117356,,,,,,
블루샥 서면,카페,커피 전문점,부산광역시 부산진구 부전동 153-5,,부산광역시 부산진구 서전로10번길 7,1,,129.0608039,35.15731693,,,,,,
컴포즈커피,카페,커피 전문점,부산광역시 금정구 구서동 414-3,,부산광역시 금정구 구서로 11,1,,129.0896337,35.24658653,,,,,,
롬카페 롯데광복백화점,카페,커피 전문점,부산광역시 중구 중앙동7가 1-1,롯데백화점,부산광역시 중구 중앙대로 2,5,,129.0367073,35.0983104,,,,,,
김민정갤러리,카페,커피 전문점,부산광역시 금정구 오륜동 583-12,,부산광역시 금정구 오륜대로 243,,,129.1143059,35.24786099,,,,,,
명성,카페,기타 비알코올 음료점업,부산광역시 중구 부평동4가 55-19,,부산광역시 중구 보수대로 76,,,129.0214385,35.10253121,,,,,,
숲,카페,커피 전문점,부산광역시 동구 범일동 1655,범일엘에이치오션브릿지,부산광역시 동구 범일로 41,,,129.0590831,35.13344733,,,,,,
마일로,카페,커피 전문점,부산광역시 수영구 남천동 556-7,남천우성스마트시티뷰,부산광역시 수영구 황령대로509번길 9,1,,129.1093596,35.13779101,,,,,,
칼리스,카페,커피 전문점,부산광역시 영도구 대교동1가 30-1,,부산광역시 영도구 태종로 56-1,,,129.0370475,35.09303281,,,,,,
더블유엘씨,카페,커피 전문점,부산광역시 해운대구 우동 650-1,그린나래호텔,부산광역시 해운대구 해운대해변로 233,16,,129.1569252,35.15895031,,,,,,
샵인,카페,커피 전문점,부산광역시 금정구 장전동 360-9,ZON,부산광역시 금정구 금강로 231,1,,129.0840818,35.22881256,,,"평일 8:00/주말, 공휴일 8:30","평일 21:00/주말, 공휴일 18:00",,
이디야 부산장림세정아울렛점,카페,커피 전문점,부산광역시 사하구 장림동 1055,,부산광역시 사하구 다대로 207,1,,128.9778341,35.08373099,,,,,,
커피엣윤스,카페,커피 전문점,부산광역시 북구 구포동 1123-6,,부산광역시 북구 사상로 594,1,,128.9909657,35.19712747,,,,,,
아모르,카페,기타 비알코올 음료점업,부산광역시 해운대구 재송동 1096-4,,부산광역시 해운대구 해운대로161번길 5,,,129.1224356,35.18337704,,,,,,
와키와키커피,카페,커피 전문점,부산광역시 중구 중앙동4가 38-1,,부산광역시 중구 대청로135번길 13,2,,129.0346221,35.10396875,,,,,,
하이오커피 연산연천점,카페,커피 전문점,부산광역시 연제구 연산동 408-24,명품블루파크,부산광역시 연제구 과정로251번길 45,1,,129.1016401,35.18696596,,,,,,
카페더힐러,카페,커피 전문점,부산광역시 북구 만덕동 774-7,벽산라인타운,부산광역시 북구 덕천로 182,,,129.0247044,35.21091436,,,,,,
고더샵,카페,커피 전문점,부산광역시 부산진구 전포동 206-27,,부산광역시 부산진구 서전로 60,,,129.0662214,35.15763014,,,,,,
둥지커피숍,카페,커피 전문점,부산광역시 동구 초량동 1151-8,,부산광역시 동구 중앙대로332번길 7,1,,129.046382,35.12563314,,,,,,
나우커피 전포점,카페,커피 전문점,부산광역시 부산진구 전포동 301-6,,부산광역시 부산진구 동성로 73,1,,129.0681475,35.15699348,,,,,,
홀스앤타이거,카페,커피 전문점,부산광역시 동래구 안락동 630-61,,부산광역시 동래구 온천천로437번길 28,,,129.1014858,35.19290721,,,,,,
소담,카페,기타 비알코올 음료점업,부산광역시 중구 광복동1가 19-1,,부산광역시 중구 광복로85번길 4,3,,129.0343835,35.09878199,,,,,,
금낭화,카페,기타 비알코올 음료점업,부산광역시 금정구 장전동 501-112,,부산광역시 금정구 금샘로 44,,,129.0767757,35.22956899,,,,,,
다방 법원점,카페,커피 전문점,부산광역시 연제구 거제동 1177-1,동측,부산광역시 연제구 월드컵대로 233,1,,129.071428,35.18941515,,,,,,
로얄,카페,기타 비알코올 음료점업,부산광역시 서구 충무동1가 2-4,,부산광역시 서구 자갈치로 11,,,129.0256508,35.09638695,,,,,,
티제이,카페,커피 전문점,부산광역시 동래구 온천동 784-29,,부산광역시 동래구 금강로8번가길 23,,,129.0729394,35.2117379,,,,,,
나비,카페,기타 비알코올 음료점업,부산광역시 영도구 대교동1가 150-4,,부산광역시 영도구 태종로 70-1,,,129.0386637,35.09232976,,,,,,
텐퍼센트 기장시장점,카페,커피 전문점,부산광역시 기장군 기장읍 동부리 275-4,파크빌딩,부산광역시 기장군 기장읍 읍내로 108-1,,,129.2161983,35.24490175,,,,,,
나현,카페,기타 비알코올 음료점업,부산광역시 부산진구 연지동 192-9,연지동삼정그린코아,부산광역시 부산진구 동평로235번길 19,,,129.0523447,35.17045534,,,,,,
텐퍼센트커피 신평점,카페,커피 전문점,부산광역시 사하구 신평동 589-12,,부산광역시 사하구 하신번영로179번길 32,1,,128.9583608,35.09875457,,,,,,
하이오커피 기장시장점,카페,커피 전문점,부산광역시 기장군 기장읍 동부리 274-24,이랜드,부산광역시 기장군 기장읍 읍내로 103,1,,129.2156687,35.24521783,,,,,,
커피센터,카페,커피 전문점,부산광역시 중구 중앙동3가 13-10,,부산광역시 중구 대청로137번길 8,,,129.0350909,35.10342018,,,,,,
원유로스페셜티 부산해리단길점,카페,커피 전문점,부산광역시 해운대구 우동 460-67,,부산광역시 해운대구 우동1로 47,1,,129.1573533,35.16560212,,,,,,
카페라보엠,카페,커피 전문점,부산광역시 금정구 부곡동 235-20,서경빌,부산광역시 금정구 중앙대로1685번길 31,2,,129.0899258,35.23485758,,,,,,
팥꽃카페,카페,커피 전문점,부산광역시 해운대구 반송동 250-313,명칭없음,부산광역시 해운대구 아랫반송로39번길 38-5,1,,129.1508525,35.22455317,,,,,,
제일,카페,기타 비알코올 음료점업,부산광역시 연제구 거제동 1188-5,,부산광역시 연제구 월드컵대로 219,,,129.0727392,35.18874388,,,,,,
현대경양식,카페,기타 비알코올 음료점업,부산광역시 부산진구 부전동 267-18,,부산광역시 부산진구 중앙대로 755,,,129.0605976,35.16001491,,,,,,
삘딩오왼몰겐,카페,커피 전문점,부산광역시 영도구 영선동4가 1075,,부산광역시 영도구 절영로 226,1,,129.0459891,35.07789568,,,,,,
카페다오나,카페,커피 전문점,부산광역시 금정구 금사동 104-7,,부산광역시 금정구 공단로 13,1,,129.1104561,35.2162981,,,,,,
부산연탄은행청소년창작스페이스사부작,카페,커피 전문점,부산광역시 서구 아미동2가 128-4,,부산광역시 서구 까치고개로 179,,,129.0156314,35.10005056,,,,,,
카페길 광안점,카페,커피 전문점,부산광역시 수영구 민락동 149-19,,부산광역시 수영구 감포로 34-1,1,,129.1200807,35.16159249,,,,,,
스타벅스 동아대학병원점,카페,커피 전문점,부산광역시 서구 동대신동3가 13-81,,부산광역시 서구 동대로 8,,,129.0171617,35.11942744,,,,,,
이디야커피 부산개금동점,카페,커피 전문점,부산광역시 부산진구 개금동 200-31,,부산광역시 부산진구 가야대로 479,1,,129.0246073,35.15346667,,,,,,
하삼동커피 아랫반송점,카페,커피 전문점,부산광역시 해운대구 반송동 250-221,,부산광역시 해운대구 아랫반송로 35,1,,129.1494198,35.22436235,,,,,,
디저트39 개금점,카페,커피 전문점,부산광역시 부산진구 개금동 184-10,해동빌딩,부산광역시 부산진구 가야대로 486,2,,129.025194,35.15278999,,,,,,
카페051 동일타워점,카페,커피 전문점,부산광역시 동구 범일동 830-140,동일타워,부산광역시 동구 조방로 14,1,,129.0634506,35.13872593,,,,,,
르아브르,카페,커피 전문점,부산광역시 부산진구 개금동 615-14,,부산광역시 부산진구 엄광로 11,2,,129.0175469,35.14837572,,,,,,
카페올레,카페,커피 전문점,부산광역시 기장군 장안읍 월내리 132-53,,부산광역시 기장군 장안읍 월내해안1길 2,1,,129.2774248,35.32648571,,,,,,
토트,카페,커피 전문점,부산광역시 금정구 부곡동 14-2,,부산광역시 금정구 중앙대로 1784,,,129.0937423,35.2436048,,,,,,
쓰리라벨즈,카페,커피 전문점,부산광역시 금정구 장전동 146-12,,부산광역시 금정구 수림로85번길 59,1,,129.0831102,35.23720096,,,"평일 8:00/주말, 공휴일 8:30","평일 21:00/주말, 공휴일 18:00",,
카페파스쿠찌 남산점,카페,커피 전문점,부산광역시 금정구 구서동 1032-9,,부산광역시 금정구 금샘로 351,3,,129.084598,35.25455844,,,,,,
세윤커피드립커피,카페,커피 전문점,부산광역시 동구 범일동 830-220,,부산광역시 동구 조방로49번길 17,,,129.0602705,35.13921262,,,,,,
비쥬빌,카페,커피 전문점,부산광역시 연제구 연산동 821-6,비쥬빌오션타워,부산광역시 연제구 연수로 113-1,1,,129.0833202,35.17537836,,,,,,
엘르,카페,커피 전문점,부산광역시 서구 서대신동2가 64-2,,부산광역시 서구 구덕로 305-1,,,129.0170231,35.11113892,,,,,,
이디야 서부산유통지구점,카페,커피 전문점,부산광역시 강서구 대저2동 3150-1,,부산광역시 강서구 유통단지1로 53,,,128.9549705,35.16702901,,,,,,
빈스에스프레소,카페,커피 전문점,부산광역시 금정구 장전동 267-2,,부산광역시 금정구 금강로279번길 81-4,2,,129.083694,35.23555081,,,평일 10:00/주말 11:00,22:00,,
꽃마루,카페,커피 전문점,부산광역시 강서구 대저2동 2111,,부산광역시 강서구 공항진입로 79,,,128.9514343,35.17840488,,,,,,
백설공주,카페,커피 전문점,부산광역시 동래구 안락동 455-4,,부산광역시 동래구 안락로 71,2,,129.1048305,35.19958068,,,,,,
시골커피,카페,커피 전문점,부산광역시 기장군 정관읍 매학리 766-2,,부산광역시 기장군 정관읍 구연1로 11,1,,129.182796,35.32067166,,,,,,
더리터 좌동점,카페,커피 전문점,부산광역시 해운대구 좌동 1314-2,화목데파트,부산광역시 해운대구 세실로 64,1,,129.1776666,35.17097876,,,,,,
카페라모드,카페,커피 전문점,부산광역시 동구 범일동 277-3,,부산광역시 동구 진시장로20번길 30,1,,129.0579715,35.13591739,,,,,,
게네랄파우제,카페,커피 전문점,부산광역시 중구 신창동1가 32-1,,부산광역시 중구 광복로49번길 31,2,,129.030207,35.10192504,,,,,,
카페그리다,카페,커피 전문점,부산광역시 남구 대연동 564-19,,부산광역시 남구 유엔로 219-4,,,129.1003829,35.13041331,,,,,,
스펠,카페,커피 전문점,부산광역시 부산진구 전포동 313-81,,부산광역시 부산진구 전포대로210번길 20,1,,129.0666464,35.15534295,,,,,,
콩루커피하우스,카페,커피 전문점,부산광역시 연제구 연산동 1287-1,,부산광역시 연제구 월드컵대로145번길 23,,,129.0803468,35.18531516,,,,,,
퍼스커피,카페,커피 전문점,부산광역시 연제구 연산동 670-48,,부산광역시 연제구 대리로6번길 121,1,,129.0867493,35.17599517,,,,,,
트웰브,카페,커피 전문점,부산광역시 중구 중앙동4가 39,,부산광역시 중구 대청로135번길 13-1,1,,129.0346458,35.10404045,,,,,,
아망티,카페,커피 전문점,부산광역시 수영구 민락동 28-20,,부산광역시 수영구 광남로258번길 8,1,,129.1270317,35.15925377,,,,,,
베이시스옵,카페,커피 전문점,부산광역시 부산진구 전포동 309-1,,부산광역시 부산진구 서전로58번길 32,,,129.0660259,35.1564079,,,,,,
친구커피숍,카페,커피 전문점,부산광역시 북구 덕천동 385-6,,부산광역시 북구 만덕대로66번길 10,,,129.0120858,35.21126898,,,,,,
머치모어댄커피,카페,커피 전문점,부산광역시 부산진구 전포동 356-9,,부산광역시 부산진구 전포대로176번길 19,2,,129.0667044,35.15243121,,,,,,
티까페예원,카페,기타 비알코올 음료점업,부산광역시 부산진구 부전동 401-16,,부산광역시 부산진구 새싹로 33,2,,129.0566378,35.16051478,,,,,,
커피스토어,카페,커피 전문점,부산광역시 부산진구 범천동 1059-31,,부산광역시 부산진구 가야대로 716,2,,129.0499225,35.157033,,,,,,
요코커피,카페,커피 전문점,부산광역시 해운대구 중동 1267-5,,부산광역시 해운대구 해운대해변로357번길 7,1,,129.1682756,35.16448787,,,,,,
카페051 정관모전점,카페,커피 전문점,부산광역시 기장군 정관읍 모전리 738-6,하나프라자,부산광역시 기장군 정관읍 정관로 391,,,129.1658151,35.33449395,,,,,,
엔제리너스 영도동삼점,카페,커피 전문점,부산광역시 영도구 동삼동 363-16,명칭없음,부산광역시 영도구 절영로 554,2,,129.0727211,35.07553108,,,,,,
다해정,카페,기타 비알코올 음료점업,부산광역시 중구 남포동2가 4,,부산광역시 중구 남포길 39-2,2,,129.0332514,35.09823325,,,,,,
이디야커피 중동역점,카페,커피 전문점,부산광역시 해운대구 중동 1321-4,,부산광역시 해운대구 좌동로10번길 31,2,,129.1706012,35.16734787,,,,,,
공간(KUKAN),카페,커피 전문점,부산광역시 동구 초량동 170-7,,부산광역시 동구 중앙대로251번길 8-3,,,129.0412753,35.11967243,,,,,,
바이타임 사상점,카페,기타 비알코올 음료점업,부산광역시 사상구 괘법동 529-1,르네관,부산광역시 사상구 광장로 7,6,,128.9777212,35.16433455,,,,,,
댄싱컵대연황령산점,카페,커피 전문점,부산광역시 남구 대연동 252-7,,부산광역시 남구 황령대로319번가길 11,1,,129.0914106,35.15015972,,,,,,
마이그라피,카페,커피 전문점,부산광역시 기장군 정관읍 방곡리 405,정관가화만사성더테라스2차,부산광역시 기장군 정관읍 구연방곡로 106,,,129.190092,35.32336016,,,,,,
더벤티신평배고개점,카페,커피 전문점,부산광역시 사하구 신평동 161-175,,부산광역시 사하구 장평로 300,1,,128.9736165,35.09296481,,,,,,
비커피 수영점,카페,커피 전문점,부산광역시 수영구 광안동 670-3,,부산광역시 수영구 광서로 4,1,,129.1140449,35.16412211,,,,,,
아덴블랑제리센텀SH밸리점,카페,커피 전문점,부산광역시 해운대구 우동 1474,센텀에스에이치밸리,부산광역시 해운대구 센텀동로 35,1,,129.1309974,35.17245795,,,,,,
헤즈영,카페,커피 전문점,부산광역시 중구 남포동2가 14-12,,부산광역시 중구 남포길 25-4,2,,129.0316322,35.09881914,,,,,,
빠마꼬마,카페,커피 전문점,부산광역시 금정구 금사동 59-21,명칭없음,부산광역시 금정구 서곡로20번길 128,,,129.1098632,35.22096736,,,,,,
카페하나,카페,커피 전문점,부산광역시 사하구 당리동 338-1,,부산광역시 사하구 괴정로 135,,,128.9774236,35.10032853,,,,,,
커피프로젝트,카페,커피 전문점,부산광역시 해운대구 재송동 1208-2,센텀스카이비즈,부산광역시 해운대구 센텀중앙로 97,,,129.1245047,35.17515834,,,,,,
커피야 문현점,카페,커피 전문점,부산광역시 남구 문현동 743-1,,부산광역시 남구 문현금융로 14-1,,,129.0650525,35.1439434,,,,,,
예서네커피,카페,커피 전문점,부산광역시 중구 남포동6가 95-6,앞,부산광역시 중구 비프광장로 14-1,,,129.0268198,35.0984311,,,,,,
카페올리브,카페,커피 전문점,부산광역시 사상구 괘법동 264-5,제,부산광역시 사상구 사상로250번길 25,1,,128.983813,35.16709164,,,,,,
하삼동커피 덕천점,카페,커피 전문점,부산광역시 북구 덕천동 398-7,,부산광역시 북구 만덕대로 19,1,,129.0071323,35.21076548,,,,,,
강남,카페,커피 전문점,부산광역시 북구 구포동 700-93,,부산광역시 북구 팽나무로 1,1,,129.0046081,35.20501282,,,,,,
디그니티,카페,커피 전문점,부산광역시 수영구 남천동 65-14,디그니티,부산광역시 수영구 황령산로7번길 78,1,,129.1068722,35.14641329,,,,,,
오직그대만,카페,커피 전문점,부산광역시 금정구 장전동 419-50,,부산광역시 금정구 금강로 275,1,,129.0853578,35.23275562,,,,,,
카페051 센텀큐비,카페,커피 전문점,부산광역시 해운대구 재송동 1212,센텀본관동,부산광역시 해운대구 센텀중앙로 90,1,,129.1264327,35.17543989,,,,,,
뉴욕컴퍼니하우스와플,카페,커피 전문점,부산광역시 금정구 부곡동 297-1,부산대역삼정그린코아,부산광역시 금정구 중앙대로 1616,,,129.090895,35.22854182,,,,,,
정원다방,카페,기타 비알코올 음료점업,부산광역시 강서구 대저1동 2342-3,,부산광역시 강서구 대저로 274,,,128.981856,35.21258784,,,,,,
뜰안,카페,기타 비알코올 음료점업,부산광역시 강서구 봉림동 131-18,,부산광역시 강서구 가락대로1243번길 62,,,128.8978258,35.17646332,,,,,,
하삼동커피 명장역점,카페,커피 전문점,부산광역시 동래구 명장동 24-1,조양,부산광역시 동래구 반송로273번길 2,1,,129.1012069,35.20594266,,,,,,
파파야커피,카페,커피 전문점,부산광역시 동래구 사직동 17-19,,부산광역시 동래구 석사로17번길 37,1,,129.060451,35.19985765,,,,,,
정은커피숍,카페,커피 전문점,부산광역시 부산진구 양정동 138-18,,부산광역시 부산진구 연수로 51,,,129.0765653,35.17517899,,,,,,
바링고빈스,카페,커피 전문점,부산광역시 기장군 정관읍 방곡리 268-4,,부산광역시 기장군 정관읍 정관덕산길 31,,,129.1831518,35.32286396,,,,,,
솔,카페,커피 전문점,부산광역시 수영구 망미동 212-17,,부산광역시 수영구 수미로71번길 9,1,,129.118374,35.17363468,,,,,,
카페파스텔,카페,커피 전문점,부산광역시 사상구 엄궁동 684-3,,부산광역시 사상구 엄궁로 65,,,128.9729086,35.12318405,,,,,,
스완,카페,기타 비알코올 음료점업,부산광역시 금정구 남산동 117-10,,부산광역시 금정구 중앙대로 2023,1,,129.0920845,35.2650086,,,,,,
페코스,카페,커피 전문점,부산광역시 해운대구 중동 1262-1,,부산광역시 해운대구 해운대해변로357번길 17,5,,129.1677212,35.16468704,,,,,,
메가엠지씨커피 초량점,카페,커피 전문점,부산광역시 동구 초량동 135-12,1~2층,부산광역시 동구 초량중로 94,,,129.0400121,35.12003615,,,,,,
카페기글링,카페,커피 전문점,부산광역시 서구 부민동1가 18-33,,부산광역시 서구 구덕로 214,3,,129.0201733,35.1036968,,,,,,
하이오커피 거제2동점,카페,제과점업,부산광역시 연제구 거제동 920-1,,부산광역시 연제구 아시아드대로 46,1,,129.0685457,35.1887345,,,,,,
공차 부산대점,카페,기타 비알코올 음료점업,부산광역시 금정구 장전동 308-4,,부산광역시 금정구 금정로68번길 22,1,,129.087671,35.23044484,,,,,,
블루샥 망미더샵점,카페,커피 전문점,부산광역시 수영구 망미동 693-1,더파크리치,부산광역시 수영구 연수로315번길 24,,,129.1053749,35.17345589,,,,,,
이디야구포 사거리점,카페,커피 전문점,부산광역시 북구 구포동 932-21,,부산광역시 북구 백양대로 1065,1,,128.9972456,35.20027723,,,,,,
컴포즈커피 미남역점,카페,커피 전문점,부산광역시 동래구 온천동 1249-2,동래효산벨뷰,부산광역시 동래구 아시아드대로231번길 3,1,,129.0670926,35.20460164,,,,,,
카페엘,카페,커피 전문점,부산광역시 중구 중앙동4가 85-11,효동빌딩,부산광역시 중구 충장대로9번길 16,1,,129.0377174,35.10672841,,,,,,
카페미미,카페,커피 전문점,부산광역시 부산진구 부암동 35-5,,부산광역시 부산진구 시민공원로19번길 68,1,,129.0512597,35.16614815,,,,,,
하이오커피 반여점,카페,커피 전문점,부산광역시 해운대구 반여동 1291-223,토니모리반여점,부산광역시 해운대구 재반로 230,1,,129.1312946,35.19770279,,,,,,
안뜰애,카페,기타 비알코올 음료점업,부산광역시 남구 감만동 521-10,남부산TML,부산광역시 남구 북항로 132,3,,129.0794708,35.10952465,,,,,,
단술by민경,카페,기타 비알코올 음료점업,부산광역시 기장군 정관읍 매학리 719-1,,부산광역시 기장군 정관읍 정관6로 5-20,1,,129.1753584,35.32048136,,,,,,
커피베이 부산부암점,카페,커피 전문점,부산광역시 부산진구 부암동 533,,부산광역시 부산진구 백양순환로 107,1,,129.0390031,35.17016708,,,,,,
99롤러카페,카페,커피 전문점,부산광역시 부산진구 전포동 661-2,예일프라자,부산광역시 부산진구 서전로37번길 25-9,1,,129.0632341,35.15882555,,,,,,
럼스,카페,커피 전문점,부산광역시 부산진구 전포동 207-46,,부산광역시 부산진구 전포대로 230-1,3,,129.0656939,35.15716152,,,,,,
덤커피,카페,커피 전문점,부산광역시 북구 화명동 2275-6,성문타워,부산광역시 북구 화명신도시로 115,,,129.0104385,35.23440218,,,,,,
묵향만화,카페,기타 비알코올 음료점업,부산광역시 부산진구 개금동 171-127,,부산광역시 부산진구 가야대로 478,1,,129.0243183,35.15287673,,,,,,
카페051 부산역점,카페,커피 전문점,부산광역시 동구 초량동 1207-7,,부산광역시 동구 중앙대로 209,1,,129.0398475,35.11607377,,,,,,
카페제로,카페,커피 전문점,부산광역시 수영구 광안동 201-8,,부산광역시 수영구 남천바다로33번길 22,1,,129.1147264,35.14933132,,,,,,
솔다방,카페,기타 비알코올 음료점업,부산광역시 북구 구포동 1050-1,,부산광역시 북구 낙동북로647번길 10,,,128.9963873,35.20288676,,,,,,
511더치,카페,커피 전문점,부산광역시 동구 초량동 1205-1,,부산광역시 동구 중앙대로 192,,,129.0397601,35.11432697,,,,,,
할리스커피 부산명지국제신도시점,카페,커피 전문점,부산광역시 강서구 명지동 3334-4,원프라자,부산광역시 강서구 명지국제11로 57,,,128.9248643,35.10446404,,,,,,
초연,카페,커피 전문점,부산광역시 부산진구 초읍동 269-46,,부산광역시 부산진구 성지로153번길 170,1,,129.0497218,35.17439279,,,,,,
키쉬미뇽 광안리점,카페,커피 전문점,부산광역시 수영구 민락동 178-10,1~3층,부산광역시 수영구 광안해변로 243-1,,,129.1206089,35.1548877,,,,,,
달음커피,카페,커피 전문점,부산광역시 기장군 일광읍 청광리 164-2,,부산광역시 기장군 일광읍 청광길 5,1,,129.2360803,35.29526851,,,,,,
더다락,카페,커피 전문점,부산광역시 금정구 장전동 316-11,,부산광역시 금정구 금정로60번길 6,,,129.0866551,35.22980453,,,,,,유사시 주소변경필요
프로듀스썸띵굿,카페,커피 전문점,부산광역시 수영구 광안동 717-9,신영하이츠,부산광역시 수영구 광서로 31,1,,129.1110675,35.16440835,,,,,,
커피레몬,카페,커피 전문점,부산광역시 동래구 온천동 1437-23,아름다운빌,부산광역시 동래구 충렬대로137번길 10,1,,129.0758429,35.20588471,,,,,,
카페누베,카페,커피 전문점,부산광역시 금정구 장전동 417-20,,부산광역시 금정구 금정로 85-10,2,,129.0863704,35.2319812,월요일,1,12:00,22:00,21:00,
보다봄,카페,커피 전문점,부산광역시 사하구 감천동 6-1174,,부산광역시 사하구 감내2로 138,1,,129.0087971,35.09814539,,,,,,
롤트,카페,커피 전문점,부산광역시 남구 용호동 85-7,,부산광역시 남구 이기대공원로 10-4,,,129.1135492,35.12417361,,,,,,
나우커피 부산명지점2,카페,커피 전문점,부산광역시 강서구 명지동 3235,엘크루솔마레아파트,부산광역시 강서구 명지오션시티12로 10,,,128.8965934,35.08173989,,,,,,
댄싱컵,카페,커피 전문점,부산광역시 남구 대연동 1272-2,동원로얄듀크,부산광역시 남구 못골로41번길 13,,,129.0863373,35.13581066,,,,,,
커피요정,카페,커피 전문점,부산광역시 북구 덕천동 431-1,,부산광역시 북구 만덕대로28번길 39,1,,129.0089145,35.20912282,,,,,,
오브너스,카페,커피 전문점,부산광역시 수영구 민락동 110-70,,부산광역시 수영구 광안해변로 364-9,1,,129.1327178,35.15554917,,,,,,
희관,카페,커피 전문점,부산광역시 사하구 괴정동 499-39,,부산광역시 사하구 사하로141번길 51,1,,128.9901448,35.09496553,,,,,,
오늘도;커피,카페,커피 전문점,부산광역시 연제구 연산동 406-7,,부산광역시 연제구 과정로 223-2,1,,129.1028285,35.18750403,,,,,,
농부카페,카페,커피 전문점,부산광역시 강서구 식만동 155-1,,부산광역시 강서구 식만로 294,1,,128.9185606,35.21713138,,,,,,
브알라 마린시티점,카페,기타 비알코올 음료점업,부산광역시 해운대구 우동 1436-1,더샵해운대아델리스,부산광역시 해운대구 마린시티3로 51,,,129.1458013,35.15403843,,,,,,
오슬로우 부산BIFC점,카페,커피 전문점,부산광역시 남구 문현동 1229-2,부산국제금융센터,부산광역시 남구 문현금융로 40,1,,129.0658629,35.14648889,,,,,,
커피콜121,카페,커피 전문점,부산광역시 부산진구 개금동 1-20,,부산광역시 부산진구 백양관문로77번길 41,2,,129.0278813,35.16424394,,,,,,
네루다,카페,커피 전문점,부산광역시 사하구 괴정동 550-30,,부산광역시 사하구 장평로449번길 14,,,128.9856586,35.09851768,,,,,,
수안;팥,카페,커피 전문점,부산광역시 동래구 수안동 33-19,,부산광역시 동래구 온천천로 285,,,129.0850345,35.19565184,,,,,,
116번가,카페,커피 전문점,부산광역시 연제구 연산동 1499-34,,부산광역시 연제구 거제천로 116,,,129.0748729,35.18415649,,,,,,
레이지앤코지,카페,비주거용 건물 임대업,부산광역시 해운대구 중동 1381-5,해운대엘본,부산광역시 해운대구 구남로21번길 6,,,129.1607772,35.16228795,,,,,,
미니카페나무,카페,커피 전문점,부산광역시 북구 구포동 556,다채움,부산광역시 북구 낙동대로1766번길 32,,,129.0020451,35.20794798,,,,,,
어반라이트,카페,커피 전문점,부산광역시 부산진구 부전동 537-9,더샵센트럴스타,부산광역시 부산진구 중앙대로666번길 50,2,,129.0603038,35.15184637,,,,,,
지은카페플라워,카페,커피 전문점,부산광역시 금정구 구서동 258-9,,부산광역시 금정구 금강로446번길 27,,,129.0894148,35.24832952,,,,,,
알리바바24시무인로봇카페 사직점,카페,커피 전문점,부산광역시 동래구 사직동 27-1,,부산광역시 동래구 사직북로 55,1,,129.0583301,35.19977659,,,,,,
구내매점,카페,기타 비알코올 음료점업,부산광역시 서구 남부민동 691-3,,부산광역시 서구 충무대로 202,1,,129.0263675,35.08990452,,,,,,
카페#인꽁뜨,카페,커피 전문점,부산광역시 사하구 당리동 325-12,,부산광역시 사하구 낙동대로 389,1,,128.9753447,35.10278662,,,,,,
서빙고,카페,기타 비알코올 음료점업,부산광역시 금정구 장전동 293-90,,부산광역시 금정구 장전로12번길 9,1,,129.0875266,35.22823952,월요일(4월~10월),1,7월~9월 11:30/5월~6월 12:30/10월~4월 13:00,7월~9월 22:30/5월~6월 21:30/10월~4월 21:00,,
커피짓,카페,커피 전문점,부산광역시 금정구 장전동 145-23,,부산광역시 금정구 금강로321번길 66,,,129.082908,35.23702421,,,8:30,20:30,,
풀하우스카페,카페,커피 전문점,부산광역시 기장군 일광읍 신평리 10,,부산광역시 기장군 일광읍 일광로 582-32,,,129.2599333,35.29337417,,,,,,
투썸플레이스 장림점,카페,커피 전문점,부산광역시 사하구 장림동 198-1,,부산광역시 사하구 장림로 222,,,128.9733457,35.082182,,,,,,
유실물보관소,카페,커피 전문점,부산광역시 금정구 부곡동 274-14,,부산광역시 금정구 동부곡로5번길 83,,,129.0928305,35.22949962,,,,,,
모란,카페,기타 비알코올 음료점업,부산광역시 금정구 부곡동 325-31,,부산광역시 금정구 동현로 17,2,,129.0904033,35.22350389,,,,,,
광복동12시,카페,커피 전문점,부산광역시 중구 광복동2가 2-46,,부산광역시 중구 광복로67번길 20-14,,,129.0320657,35.09949676,,,,,,
꽃바테화명,카페,커피 전문점,부산광역시 북구 화명동 1470-6,전체,부산광역시 북구 와석장터로 6,,,129.0147204,35.23478154,,,,,,
블랙스타,카페,커피 전문점,부산광역시 부산진구 전포동 663-5,,부산광역시 부산진구 서전로37번길 18,1,,129.0639845,35.15856043,,,,,,
공차 부산거제리점,카페,커피 전문점,부산광역시 연제구 거제동 1477-4,,부산광역시 연제구 아시아드대로 88,1,,129.0675212,35.1924918,,,,,,
카파드래곤,카페,커피 전문점,부산광역시 중구 동광동5가 44-32,,부산광역시 중구 동광길 47,1,,129.0345568,35.10487102,,,,,,
컴포즈커피 대우마리나점,카페,커피 전문점,부산광역시 해운대구 우동 1388-4,대우마리나1차,부산광역시 해운대구 해운대해변로 117,,,129.1453571,35.15968747,,,,,,
더-브릿지Ⅱ,카페,커피 전문점,부산광역시 남구 대연동 43-51,조은원룸,부산광역시 남구 수영로334번길 51,,,129.1037715,35.13634721,,,,,,
위파티 부산본점,카페,커피 전문점,부산광역시 부산진구 개금동 528-20,,부산광역시 부산진구 냉정로 166-1,,,129.0181692,35.14958193,,,,,,
오슬로우 안락점,카페,커피 전문점,부산광역시 동래구 안락동 469-17,,부산광역시 동래구 안락로 140,1,,129.1121123,35.19885006,,,,,,
노스북문점,카페,커피 전문점,부산광역시 금정구 장전동 145-7,,부산광역시 금정구 수림로85번길 56,1,,129.082787,35.23744983,,,평일 07:00/주말 08:00,22:00,,
옐로,카페,커피 전문점,부산광역시 사상구 감전동 130-34,,부산광역시 사상구 새벽시장로 79,1,,128.9824429,35.15495721,,,,,,
한국에너지,카페,커피 전문점,부산광역시 동래구 온천동 1370-2,,부산광역시 동래구 여고북로 43-3,1,,129.0676902,35.20088768,,,,,,
컴포즈커피 금련산점,카페,커피 전문점,부산광역시 수영구 남천동 48-28,,부산광역시 수영구 수영로 465,1,,129.1100932,35.1475107,,,,,,
밤새다방연산 4호점,카페,커피 전문점,부산광역시 연제구 연산동 711-1,,부산광역시 연제구 월드컵대로99번길 19,1,,129.0820236,35.18349303,,,,,,
우차 본점,카페,기타 비알코올 음료점업,부산광역시 사상구 괘법동 273-11,,부산광역시 사상구 광장로81번길 48,1,,128.984443,35.16456704,,,,,,
모드니,카페,커피 전문점,부산광역시 영도구 청학동 252-136,,부산광역시 영도구 청학로 62,101,,129.0603542,35.09419788,,,,,,
커피베이,카페,커피 전문점,부산광역시 사상구 모라동 1344-4,,부산광역시 사상구 백양대로 951,1,,128.991788,35.19123831,,,,,,
텐퍼센트서 구청점,카페,커피 전문점,부산광역시 서구 토성동4가 14-1,,부산광역시 서구 구덕로148번길 38,1,,129.0227747,35.09803007,,,,,,
연화의바다,카페,커피 전문점,부산광역시 기장군 기장읍 연화리 304-2,,부산광역시 기장군 기장읍 연화1길 75,,,129.2241727,35.21512656,,,,,,
플로라애라117,카페,커피 전문점,부산광역시 수영구 망미동 250-2,,부산광역시 수영구 수미로49번길 6,,,129.1161912,35.17368186,,,,,,
히컵커피,카페,커피 전문점,부산광역시 금정구 장전동 219-3,,부산광역시 금정구 수림로49번길 42,1,,129.0868343,35.23808298,,,평일 08:30/주말 12:00,평일 22:00/주말 21:00,,
블루엘커피,카페,커피 전문점,부산광역시 금정구 남산동 51-1,남산누리마을,부산광역시 금정구 벅구산로 2,1,,129.0930675,35.2707589,,,,,,
루쓰,카페,커피 전문점,부산광역시 남구 대연동 968-24,,부산광역시 남구 석포로86번길 90,1,,129.0903781,35.12652213,,,,,,
이디야 초읍점,카페,커피 전문점,부산광역시 부산진구 초읍동 203-6,,부산광역시 부산진구 성지로 104,1,,129.0525444,35.17970689,,,,,,
짜라카페,카페,커피 전문점,부산광역시 부산진구 부전동 466-15,,부산광역시 부산진구 부전로 89,1,,129.0545813,35.1581526,,,,,,
자판기,카페,커피 전문점,부산광역시 부산진구 부전동 392-6,,부산광역시 부산진구 새싹로52번길 18,,,129.0566398,35.1623351,,,,,,
무인카페,카페,커피 전문점,부산광역시 북구 덕천동 327,덕천지하상가,부산광역시 북구 금곡대로 14,,,129.0053809,35.21054218,,,,,,
이디야커피 반송동점,카페,커피 전문점,부산광역시 해운대구 반송동 186-5,,부산광역시 해운대구 신반송로 179,,,129.1601111,35.22914622,,,,,,
룩앳더바리스타,카페,커피 전문점,부산광역시 해운대구 송정동 808-1,,부산광역시 해운대구 송정구덕포길 118,,,129.197367,35.17061382,,,,,,
커피앤코이,카페,커피 전문점,부산광역시 금정구 부곡동 224-54,,부산광역시 금정구 부곡온천천로 140,1,,129.088623,35.23844862,,,,,,
하삼동커피 감천점,카페,커피 전문점,부산광역시 사하구 감천동 648-11,,부산광역시 사하구 감천로 47,1,,128.9977986,35.0909375,,,,,,
하삼동커피 자갈치역점,카페,커피 전문점,부산광역시 서구 충무동1가 7-5,,부산광역시 서구 구덕로 102-1,1,,129.0243919,35.09691264,,,,,,
더마루솔,카페,커피 전문점,부산광역시 부산진구 부전동 224-7,한국전력,부산광역시 부산진구 중앙대로666번길 43,1,,129.0615658,35.15272605,,,,,,
운커피,카페,커피 전문점,부산광역시 부산진구 전포동 356-10,,부산광역시 부산진구 전포대로176번길 23,1,,129.0668335,35.15232988,,,,,,
엘빈,카페,커피 전문점,부산광역시 연제구 연산동 300-8,,부산광역시 연제구 온천천남로 8-1,1,,129.0916491,35.19287933,,,,,,
하삼동커피,카페,커피 전문점,부산광역시 중구 창선동2가 47-1,,부산광역시 중구 광복로 38,,,129.0291284,35.09911341,,,,,,
파크애,카페,커피 전문점,부산광역시 사하구 괴정동 26-9,,부산광역시 사하구 까치고개로 79-1,1,,129.00993,35.10543517,,,,,,
투썸플레이스 서면중앙점,카페,커피 전문점,부산광역시 부산진구 부전동 222-1,1~3층,부산광역시 부산진구 동천로 63,,,129.0621218,35.15432066,,,,,,
카페051,카페,커피 전문점,부산광역시 사상구 괘법동 559-16,,부산광역시 사상구 광장로56번길 5,1,,128.9827047,35.1616757,,,,,,
잇츠미,카페,커피 전문점,부산광역시 부산진구 당감동 650-1,,부산광역시 부산진구 백양순환로 42,1,,129.0333322,35.16852319,,,,,,
카페구름,카페,커피 전문점,부산광역시 동래구 명장동 153-64,,부산광역시 동래구 명장로 109-1,,,129.1113506,35.20165691,,,,,,
브라운핸즈백제,카페,커피 전문점,부산광역시 동구 초량동 467,전체호,부산광역시 동구 중앙대로209번길 16,1,,129.0391412,35.11633799,,,,,,
오아스로스터스,카페,커피 전문점,부산광역시 수영구 광안동 145-36,명칭없음,부산광역시 수영구 광안로21번길 23,1,,129.1151687,35.15751507,,,,,,
사이,카페,커피 전문점,부산광역시 중구 대청동4가 89-4,킴스빌,부산광역시 중구 대청로99번길 15,1,,129.0305695,35.10416289,,,,,,
커피야스,카페,커피 전문점,부산광역시 영도구 청학동 223-24,,부산광역시 영도구 청학로 93,,,129.0610134,35.09643059,,,,,,
하엘,카페,커피 전문점,부산광역시 기장군 정관읍 모전리 683-11,,부산광역시 기장군 정관읍 모전3길 37-1,1,,129.1699684,35.33683444,,,,,,
더벤티 양정점,카페,커피 전문점,부산광역시 부산진구 양정동 364-1,,부산광역시 부산진구 양지로 8,1,,129.0695198,35.16957726,,,,,,
올래,카페,커피 전문점,부산광역시 연제구 연산동 1800-10,,부산광역시 연제구 연수로 224,,,129.0951655,35.17335363,,,,,,
커피브레이크,카페,커피 전문점,부산광역시 남구 우암동 52-37,,부산광역시 남구 우암로 152,,,129.0801161,35.12368888,,,,,,
봄오리,카페,커피 전문점,부산광역시 수영구 광안동 146-1,,부산광역시 수영구 수영로594번길 30,1,,129.1150623,35.15849017,,,,,,
컴포즈커피 동래시장점,카페,커피 전문점,부산광역시 동래구 수안동 463-2,,부산광역시 동래구 명륜로112번길 42-1,1,,129.0852056,35.20320055,,,,,,
바우,카페,커피 전문점,부산광역시 중구 동광동1가 13-2,,부산광역시 중구 광복로97번길 6,1,,129.0355337,35.09917722,,,,,,
카페686,카페,커피 전문점,부산광역시 기장군 정관읍 모전리 686-6,,부산광역시 기장군 정관읍 모전2길 19-5,1,,129.1697111,35.33584783,,,,,,
하삼동커피 대연파크푸르지오점,카페,커피 전문점,부산광역시 남구 대연동 1893,대연파크푸르지오,부산광역시 남구 홍곡로 360,1,,129.0908196,35.125343,,,,,,
이디야 부산동서대IC빌딩점,카페,커피 전문점,부산광역시 사상구 주례동 88,동서대학교,부산광역시 사상구 주례로 47,2,,129.0070247,35.14613539,,,,,,
할리스커피 부산센텀시티점,카페,커피 전문점,부산광역시 해운대구 우동 1511,센텀다이아몬드,부산광역시 해운대구 센텀2로 24,1,,129.1324484,35.16666507,,,,,,
필드커피스탠드,카페,커피 전문점,부산광역시 수영구 망미동 438-1,,부산광역시 수영구 망미배산로10번길 87,1,,129.1064222,35.17788936,,,,,,
체리쉬,카페,커피 전문점,부산광역시 서구 부용동2가 71,,부산광역시 서구 고운들로 52,1,,129.0175761,35.10643459,,,,,,
프루쉬부산대역점,카페,기타 비알코올 음료점업,부산광역시 금정구 부곡동 981,삼한골든뷰에듀스테이션,부산광역시 금정구 중앙대로1629번길 16,,,129.0897132,35.23085115,,,,,,
심심푸리,카페,기타 비알코올 음료점업,부산광역시 금정구 장전동 643-117,테라스파크,부산광역시 금정구 장전온천천로 51,4,,129.0888241,35.22958687,,,10:30,0:00:00,,보드게임카페
더벤티 서면2호점,카페,커피 전문점,부산광역시 부산진구 부전동 168-173,,부산광역시 부산진구 중앙대로702번길 25,1,,129.0605059,35.15551066,,,,,,
커피광안184,카페,커피 전문점,부산광역시 수영구 광안동 184-13,,부산광역시 수영구 광남로83번길 4,1,,129.1139821,35.14982193,,,,,,
컴포즈커피 W스퀘어점,카페,커피 전문점,부산광역시 남구 용호동 954,더블유,부산광역시 남구 분포로 145,,,129.1112202,35.13422606,,,,,,
감천마을협동조합 감천제일점,카페,기타 비알코올 음료점업,부산광역시 사하구 감천동 12-121,,부산광역시 사하구 옥천로75번길 14,1,,129.0091676,35.09402987,,,,,,
카페과테말라,카페,커피 전문점,부산광역시 동래구 안락동 176-15,,부산광역시 동래구 온천천로 505,,,129.1081863,35.19094335,,,,,,
티티카카,카페,커피 전문점,부산광역시 동래구 명륜동 297-1,,부산광역시 동래구 명륜로138번길 31,3,,129.0835962,35.20681485,,,,,,
퍼스테이지,카페,커피 전문점,부산광역시 영도구 영선동4가 1172,,부산광역시 영도구 흰여울길 154,,,129.0472608,35.07658552,,,,,,
카페샐러드,카페,커피 전문점,부산광역시 해운대구 재송동 1130-25,프리빌,부산광역시 해운대구 재반로112번길 11,1,,129.1276577,35.18874632,,,,,,
모델커피숍,카페,기타 비알코올 음료점업,부산광역시 사상구 덕포동 427-1,,부산광역시 사상구 삼덕로46번길 89,1,,128.9809012,35.17011318,,,,,,
까까로운,카페,커피 전문점,부산광역시 중구 남포동2가 39-4,,부산광역시 중구 남포길 46-1,2,,129.0336272,35.09791154,,,,,,
풀루,카페,커피 전문점,부산광역시 영도구 동삼동 578-3,,부산광역시 영도구 절영로 461,1,,129.0671096,35.06992247,,,,,,
에라완 금정점,카페,커피 전문점,부산광역시 금정구 장전동 96-1,,부산광역시 금정구 금강로391번길 5,1,,129.0863025,35.24304846,,,,,,
동피랑,카페,커피 전문점,부산광역시 동래구 안락동 176-9,,부산광역시 동래구 연안로 38,2,,129.1081804,35.1911417,,,,,,
하운트커피,카페,커피 전문점,부산광역시 금정구 남산동 130-42,로얄하우스,부산광역시 금정구 두실로 12,1,,129.0900389,35.2606554,,,,,,
커피프론트,카페,커피 전문점,부산광역시 해운대구 우동 1514,센텀리더스마크,부산광역시 해운대구 APEC로 17,,,129.1324182,35.16592666,,,,,,
가베향,카페,커피 전문점,부산광역시 중구 중앙동4가 36-1,,부산광역시 중구 해관로 59-1,,,129.035354,35.10429891,,,,,,
스타카토로스터스,카페,커피 전문점,부산광역시 기장군 기장읍 당사리 524,롯데몰동부산점,부산광역시 기장군 기장읍 기장해안로 147,1,,129.212779,35.19221254,,,,,,
영커피숍,카페,커피 전문점,부산광역시 연제구 연산동 367-19,,부산광역시 연제구 과정로 280,2,,129.0968434,35.18825667,,,,,,
오픈하트,카페,커피 전문점,부산광역시 연제구 거제동 727-6,,부산광역시 연제구 거제대로96번길 14,1,,129.0687807,35.17679015,,,,,,
부산서구지역자활센터 가온비 서구점,카페,커피 전문점,부산광역시 서구 토성동5가 56-4,,부산광역시 서구 구덕로 127,1,,129.0220639,35.09632969,,,,,,
이안띠커피랩,카페,커피 전문점,부산광역시 해운대구 중동 1484-17,,부산광역시 해운대구 달맞이길117번라길 80,1,,129.1821023,35.16160817,,,,,,
윙고,카페,커피 전문점,부산광역시 서구 동대신동3가 1-22,동아대학교병원,부산광역시 서구 대신공원로 26,2,,129.0187568,35.12050931,,,,,,
연경재 가덕점,카페,커피 전문점,부산광역시 강서구 천성동 1480,,부산광역시 강서구 가덕해안로 655,,,128.812947,35.0382741,,,,,,
메가커피 해운대시장점 ,카페,커피 전문점,부산광역시 해운대구 중동 1378-96,,부산광역시 해운대구 중동1로 35,1,,129.1633722,35.16248493,,,,,,
더차,카페,커피 전문점,부산광역시 사상구 덕포동 789,남영,부산광역시 사상구 백양대로 706,2,,128.9887225,35.16995795,,,,,,
카페331,카페,커피 전문점,부산광역시 영도구 청학동 222-13,,부산광역시 영도구 태종로 331,1,,129.0620199,35.09634138,,,,,,
더벤티 수영구청점,카페,커피 전문점,부산광역시 수영구 남천동 28-25,,부산광역시 수영구 광남로 45,1,,129.1116547,35.1467986,,,,,,
읍천리382 부산경성대점,카페,커피 전문점,부산광역시 남구 대연동 67-16,,부산광역시 남구 용소로8번길 33-1,,,129.09874,35.13564147,,,,,,
덱스커피 전포점,카페,커피 전문점,부산광역시 부산진구 전포동 694-1,,부산광역시 부산진구 서전로46번길 86,1,,129.0647552,35.15388829,,,,,,
인파크커피,카페,커피 전문점,부산광역시 중구 영주동 214-10,,부산광역시 중구 망양로383번안길 36,2,,129.0288816,35.11127439,,,,,,
여울책장,카페,커피 전문점,부산광역시 영도구 영선동4가 1110,,부산광역시 영도구 흰여울길 381,,,129.0466037,35.07704721,,,,,,
헬로커피하이허니,카페,커피 전문점,부산광역시 수영구 망미동 406-40,,부산광역시 수영구 망미번영로85번길 10,1,,129.110696,35.17508445,,,,,,
공간다다,카페,기타 비알코올 음료점업,부산광역시 해운대구 송정동 170-18,,부산광역시 해운대구 송정강변로 87-1,1,,129.2065677,35.18903681,,,,,,
컴포즈커피 하단강변점,카페,커피 전문점,부산광역시 사하구 하단동 1167-1,,부산광역시 사하구 하신번영로 251,1,,128.9582019,35.10356949,,,,,,
수목커피,카페,커피 전문점,부산광역시 강서구 대저1동 2342-20,,부산광역시 강서구 대저로 278-1,1,,128.9823659,35.21233618,,,,,,
까페젤라떼리아,카페,커피 전문점,부산광역시 수영구 민락동 110-26,베네치아빌딩,부산광역시 수영구 광안해변로344번길 17-3,,,129.1308528,35.15514044,,,,,,
그레이스우간다,카페,커피 전문점,부산광역시 부산진구 전포동 677-11,홍주빌딩,부산광역시 부산진구 전포대로209번길 18,1,,129.06428,35.15549145,,,,,,
다반,카페,커피 전문점,부산광역시 남구 대연동 52-23,,부산광역시 남구 용소로13번길 38-1,,,129.1027218,35.13690613,,,,,,
지니프레쉬,카페,커피 전문점,부산광역시 서구 동대신동1가 323-7,,부산광역시 서구 대영로86번길 65,,,129.0221514,35.10830487,,,,,,
강남사람들,카페,커피 전문점,부산광역시 중구 중앙동7가 20-1,롯데백화점,부산광역시 중구 중앙대로 2,4,,129.0367073,35.0983104,,,,,,
커피몽,카페,커피 전문점,부산광역시 부산진구 양정동 337-2,,부산광역시 부산진구 중앙대로928번길 13,1,,129.0718941,35.17232124,,,,,,
가비방,카페,커피 전문점,부산광역시 금정구 장전동 393-7,,부산광역시 금정구 장전온천천로89번길 5,,,129.0888012,35.23297558,일요일,1,10:00,21:00,,
카페투제니,카페,커피 전문점,부산광역시 연제구 연산동 774-8,,부산광역시 연제구 중앙천로 38,1,,129.0828327,35.17820736,,,,,,
재나컴퍼니,카페,커피 전문점,부산광역시 연제구 거제동 1-7,대승아이티빌딩,부산광역시 연제구 거제대로 296,2,,129.0789179,35.19213441,,,,,,
큐브,카페,커피 전문점,부산광역시 기장군 일광읍 문중리 116-1,,부산광역시 기장군 일광읍 일광로 704,1,,129.2568436,35.30480383,,,,,,
하이오 화명점,카페,커피 전문점,부산광역시 북구 화명동 2275-3,메트로프라자,부산광역시 북구 화명신도시로 117,1,,129.010489,35.23467169,,,,,,
신기숲,카페,커피 전문점,부산광역시 영도구 청학동 산 39-14,,부산광역시 영도구 와치로 65,,,129.0602681,35.08685481,,,,,,
이지몽드,카페,커피 전문점,부산광역시 북구 구포동 900-26,이지몽드이지몽드,부산광역시 북구 백양대로1016번길 63,1,,128.9974224,35.19718331,,,,,,
베란다,카페,커피 전문점,부산광역시 중구 대청동2가 35-2,,부산광역시 중구 광복중앙로 28,,,129.0310588,35.1017846,,,,,,
탐엔탐스 연산점,카페,커피 전문점,부산광역시 연제구 연산동 701-1,더웰타워,부산광역시 연제구 월드컵대로 125,1,,129.0818373,35.18522645,,,,,,
더치엔커피,카페,커피 전문점,부산광역시 사하구 신평동 592-7,영인다세대주택,부산광역시 사하구 하신번영로177번길 20,1,,128.9590563,35.098491,,,,,,
더커피,카페,커피 전문점,부산광역시 해운대구 반여동 1602-1,태양둥지,부산광역시 해운대구 재반로270번길 6,1,,129.1320431,35.20114099,,,,,,
까페엘림,카페,커피 전문점,부산광역시 해운대구 재송동 1129-1,동은빌딩,부산광역시 해운대구 재반로112번길 14,1,,129.1278899,35.18839079,,,,,,
설빙 영광도서거리점,카페,기타 비알코올 음료점업,부산광역시 부산진구 부전동 475-1,동경빌딩,부산광역시 부산진구 서면문화로 7,2,,129.0574835,35.15836466,,,,,,
하프카페0.9,카페,커피 전문점,부산광역시 남구 대연동 358-5,,부산광역시 남구 수영로250번길 87,1,,129.0978893,35.13412423,,,,,,
카페제이스페이스,카페,커피 전문점,부산광역시 부산진구 연지동 233-27,,부산광역시 부산진구 국악로 22-1,1,,129.0531901,35.1722163,,,,,,
소풍,카페,커피 전문점,부산광역시 부산진구 양정동 509-27,,부산광역시 부산진구 동평로 343-1,1,,129.0626816,35.17518201,,,,,,
감성커피,카페,커피 전문점,부산광역시 동래구 사직동 93-6,사직동자이언츠파크,부산광역시 동래구 사직북로 4,,,129.0613593,35.1962646,,,,,,
메가커피 해운대NC점 ,카페,커피 전문점,부산광역시 해운대구 좌동 1467-4,일부호지팝건축물,부산광역시 해운대구 해운대로 813,1,,129.177051,35.17053024,,,,,,
다해카페,카페,기타 비알코올 음료점업,부산광역시 남구 문현동 574-14,,부산광역시 남구 황령대로90번길 114-2,,,129.0692478,35.14541279,,,,,,
전통찻집지우,카페,기타 비알코올 음료점업,부산광역시 동래구 온천동 616-7,일부,부산광역시 동래구 충렬대로126번길 47,1,,129.0735095,35.20393316,,,,,,
신기여울,카페,커피 전문점,부산광역시 영도구 영선동4가 663,,부산광역시 영도구 절영로 202-2,2,,129.0443727,35.07945494,,,,,,
카페051 낙민점,카페,커피 전문점,부산광역시 동래구 낙민동 91-3,,부산광역시 동래구 안남로31번길 6,1,,129.0959278,35.19449047,,,,,,
인디고,카페,커피 전문점,부산광역시 사하구 괴정동 235-5,,부산광역시 사하구 사리로 56-2,,,128.998803,35.10468198,,,,,,
카페폴인,카페,커피 전문점,부산광역시 기장군 정관읍 달산리 246-8,,부산광역시 기장군 정관읍 산단5로 76-62,,,129.1997291,35.31503906,,,,,,
블랙업커피,카페,커피 전문점,부산광역시 해운대구 중동 1378-18,,부산광역시 해운대구 중동2로 16,1,,129.1645494,35.16342811,,,,,,
에이프릴영,카페,커피 전문점,부산광역시 연제구 연산동 417-27,,부산광역시 연제구 과정로 151-1,,,129.1068923,35.18504533,,,,,,
이삐커피 신평점,카페,커피 전문점,부산광역시 사하구 신평동 592-1,,부산광역시 사하구 하신번영로179번길 31,,,128.958369,35.09863728,,,,,,
옐로우밀크티,카페,기타 비알코올 음료점업,부산광역시 사상구 덕포동 421-1,,부산광역시 사상구 삼덕로46번길 51,1,,128.9813015,35.17168369,,,,,,
디저트하우스,카페,커피 전문점,부산광역시 기장군 일광읍 학리 125,,부산광역시 기장군 일광읍 학리등대로 86,1,,129.246521,35.25785009,,,,,,
광안자모병원 알로하,카페,커피 전문점,부산광역시 수영구 광안동 774-16,자모병원,부산광역시 수영구 수영로 555,1,,129.1119193,35.15533692,,,,,,
노부스테라;리플렉스,카페,커피 전문점,부산광역시 해운대구 반여동 1470-22,,부산광역시 해운대구 수영강변대로 464,,,129.1167427,35.19959823,,,,,,
제이엠커피로스터스 정관점,카페,커피 전문점,부산광역시 기장군 정관읍 매학리 136-13,,부산광역시 기장군 정관읍 곰내길 634,2,,129.1719906,35.31500906,,,,,,
댄싱컵 범천점,카페,커피 전문점,부산광역시 동구 범일동 1306-8,,부산광역시 동구 망양로 966,1,,129.0547952,35.14179284,,,,,,
탐엔탐스,카페,커피 전문점,부산광역시 서구 암남동 583-5,,부산광역시 서구 송도해변로 57,,,129.0156837,35.07411374,,,,,,
라운지커피부산,카페,커피 전문점,부산광역시 해운대구 반여동 1291-1379,,부산광역시 해운대구 해운대로61번길 81-1,1,,129.127443,35.19524735,,,,,,
카페히로,카페,커피 전문점,부산광역시 부산진구 개금동 177-10,동,부산광역시 부산진구 가야대로454번길 42,1,,129.0216323,35.15119135,,,,,,
레스또,카페,커피 전문점,부산광역시 부산진구 범천동 881-9,,부산광역시 부산진구 범일로131번길 79,,,129.0585461,35.14479311,,,,,,
이디야 해운대우동점,카페,커피 전문점,부산광역시 해운대구 우동 381-2,,부산광역시 해운대구 우동1로 82,1,,129.1565405,35.16848223,,,,,,
카페051 남천해변시장점,카페,커피 전문점,부산광역시 수영구 남천동 556-14,남천상가,부산광역시 수영구 광안해변로15번길 65,,,129.1095116,35.13900492,,,,,,
카페051 해운대좌동점,카페,커피 전문점,부산광역시 해운대구 좌동 1413,삼성,부산광역시 해운대구 세실로 174,1,,129.1773336,35.17906794,,,,,,
라루스,카페,커피 전문점,부산광역시 기장군 장안읍 월내리 257-39,,부산광역시 기장군 장안읍 해맞이로 403-1,1,,129.2800533,35.32846362,,,,,,
궁,카페,커피 전문점,부산광역시 해운대구 반송동 15-64,,부산광역시 해운대구 반송로 928-1,,,129.1548369,35.23278173,,,,,,
초원,카페,커피 전문점,부산광역시 금정구 서동 202-13,,부산광역시 금정구 서동로 166,,,129.104569,35.21454427,,,,,,
약속커피숍,카페,커피 전문점,부산광역시 연제구 거제동 610-9,,부산광역시 연제구 거제대로 158,,,129.0705678,35.18233777,,,,,,
김욱진커피로스터즈,카페,커피 전문점,부산광역시 금정구 부곡동 286-15,,부산광역시 금정구 동부곡로9번길 56,1,,129.0933561,35.22815683,,,,,,
여우플라워,카페,커피 전문점,부산광역시 사하구 하단동 526-6,영진,부산광역시 사하구 낙동남로 1413,3,,128.9668772,35.10681746,,,,,,
작지만큰카페,카페,커피 전문점,부산광역시 부산진구 개금동 163-8,대도빌딩,부산광역시 부산진구 가야대로 494,1,,129.0261715,35.15282772,,,,,,
컵넛 덕천점,카페,커피 전문점,부산광역시 북구 덕천동 348-29,,부산광역시 북구 기찰로 11,2,,129.0061771,35.21166446,,,,,,
자락,카페,기타 비알코올 음료점업,부산광역시 기장군 기장읍 시랑리 682-2,,부산광역시 기장군 기장읍 당사로5길 9,,,129.2091046,35.18583659,,,,,,
카페요있다,카페,커피 전문점,부산광역시 사하구 괴정동 964-17,,부산광역시 사하구 사하로 198,1,,128.9937052,35.09934084,,,,,,
하이오 동삼점,카페,커피 전문점,부산광역시 영도구 동삼동 358-3,,부산광역시 영도구 동삼로 30,,,129.0718449,35.0764292,,,,,,
고니스커피,카페,커피 전문점,부산광역시 중구 창선동2가 45-6,1~2층,부산광역시 중구 광복로 32-1,,,129.0285379,35.09917737,,,,,,
이디야커피 대연SK힐스점,카페,커피 전문점,부산광역시 남구 대연동 1903,대연에스케이뷰힐스,부산광역시 남구 수영로 261,,,129.0954094,35.13580726,,,,,,
대연골목,카페,커피 전문점,부산광역시 남구 대연동 961-27,,부산광역시 남구 유엔평화로70번길 17,1,,129.092664,35.12797859,,,,,,
공차 부산서면점,카페,커피 전문점,부산광역시 부산진구 부전동 205-1,,부산광역시 부산진구 중앙대로692번길 22,1,,129.0604325,35.1543404,,,,,,
사시절,카페,커피 전문점,부산광역시 금정구 장전동 293-155,,부산광역시 금정구 장전로12번길 28,2,,129.0880267,35.22889774,일요일,1,12:00,19:00,18:00,
지엔케이카페,카페,커피 전문점,부산광역시 부산진구 양정동 391-5,,부산광역시 부산진구 동평로420번길 20-1,1,,129.0696372,35.17247699,,,,,,
어오케이커피 장산역점,카페,커피 전문점,부산광역시 해운대구 좌동 1479-1,웅신시네아트,부산광역시 해운대구 해운대로 802,1,,129.1766633,35.16915848,,,,,,
투썸플레이스 부산초량점,카페,커피 전문점,부산광역시 동구 초량동 1143-16,,부산광역시 동구 중앙대로 325,2,,129.0450286,35.12546674,,,,,,
카페밸리,카페,커피 전문점,부산광역시 중구 중앙동6가 9-1,광복지하도상가,부산광역시 중구 중앙대로 17,,,129.036326,35.09973165,,,,,,
텐퍼센트커피 감전역점,카페,커피 전문점,부산광역시 사상구 감전동 118-10,,부산광역시 사상구 학감대로 269,1,,128.9905106,35.1550682,,,,,,
더네스트커피,카페,커피 전문점,부산광역시 동래구 사직동 99-5,,부산광역시 동래구 아시아드대로133번길 17,1,,129.0649771,35.19606776,,,,,,
더리터 부암로타리점,카페,커피 전문점,부산광역시 부산진구 부암동 751,협성휴포레시티즌파크아파트,부산광역시 부산진구 동평로 173,3,,129.0473797,35.16633998,,,,,,
카페블루,카페,커피 전문점,부산광역시 사하구 장림동 380-4,,부산광역시 사하구 다대로 323,,,128.9768646,35.07308575,,,,,,
더윤커피,카페,커피 전문점,부산광역시 금정구 남산동 20-37,,부산광역시 금정구 팔송로 17-1,1,,129.0905625,35.27205481,,,,,,
향미공간,카페,커피 전문점,부산광역시 부산진구 전포동 663-9,,부산광역시 부산진구 동천로108번길 41,2,,129.0644301,35.15839063,,,,,,
재팬카페,카페,커피 전문점,부산광역시 사상구 주례동 88,동서대학교,부산광역시 사상구 주례로 47,3,,129.0070247,35.14613539,,,,,,
인더포레,카페,커피 전문점,부산광역시 사상구 주례동 81,경남정보대학교,부산광역시 사상구 주례로 45,1,,129.0090732,35.14645288,,,,,,
텐퍼센트커피 부산진역점,카페,커피 전문점,부산광역시 동구 수정동 1-10,부산일보,부산광역시 동구 중앙대로 365,1,,129.0480012,35.12853457,,,,,,
카페아라,카페,커피 전문점,부산광역시 기장군 일광읍 문중리 2,,부산광역시 기장군 일광읍 문오성길 611,,,129.2592468,35.30267739,,,,,,
카페이음,카페,커피 전문점,부산광역시 금정구 부곡동 720-6,,부산광역시 금정구 동현로 60,2,,129.0947487,35.22251859,,,,,,
카페판다 감만점,카페,커피 전문점,부산광역시 남구 감만동 8,일부층홈플러스감만동판매시설,부산광역시 남구 우암로 124,,,129.0822113,35.12154417,,,,,,
카페앤바가토,카페,커피 전문점,부산광역시 연제구 연산동 302-3,,부산광역시 연제구 신금로 25,,,129.0943716,35.19159768,,,,,,
감성커피,카페,커피 전문점,부산광역시 기장군 정관읍 모전리 730,이지더원3차,부산광역시 기장군 정관읍 정관로 350,,,129.1643656,35.33580852,,,,,,
카페지원,카페,커피 전문점,부산광역시 사하구 하단동 503-26,,부산광역시 사하구 하신번영로380번길 129,1,,128.9604027,35.10892301,,,,,,
쉐누,카페,커피 전문점,부산광역시 동래구 온천동 302-18,,부산광역시 동래구 차밭골로 44,,,129.0773409,35.21770916,,,,,,
올이미지스,카페,커피 전문점,부산광역시 강서구 명지동 3579-12,,부산광역시 강서구 명지국제6로1번가길 4,1,,128.9002706,35.09516427,,,,,,
탭플레이,카페,커피 전문점,부산광역시 사하구 장림동 1033-2,롯데마트,부산광역시 사하구 을숙도대로 610,1,,128.9723121,35.08478523,,,,,,
러스틱,카페,커피 전문점,부산광역시 부산진구 당감동 751-20,,부산광역시 부산진구 당감서로 75,1,,129.0366123,35.16715236,,,,,,
헤이븐,카페,커피 전문점,부산광역시 해운대구 우동 265-43,,부산광역시 해운대구 우동3로11번길 29,1,,129.1623954,35.16952226,,,,,,
컴포즈커피 당리점,카페,커피 전문점,부산광역시 사하구 당리동 325-2,리치하우스,부산광역시 사하구 낙동대로 407-1,,,128.973664,35.1031204,,,,,,
미화커피숍,카페,커피 전문점,부산광역시 수영구 수영동 508-8,,부산광역시 수영구 수영로725번길 10,,,129.1182811,35.16878812,,,,,,
정성커피,카페,커피 전문점,부산광역시 북구 화명동 2267-1,샤롯데플러스,부산광역시 북구 금곡대로303번길 70,1,,129.0099853,35.23606785,,,,,,
커피하우스3,카페,커피 전문점,부산광역시 사상구 괘법동 516-69,사상구육아종합지원센터,부산광역시 사상구 낙동대로1210번길 17,1,,128.9778982,35.16801747,,,,,,
탐앤탐스 해운대마린시티점 ,카페,커피 전문점,부산광역시 해운대구 우동 1436-1,더샵해운대아델리스,부산광역시 해운대구 마린시티3로 51,2,,129.1458013,35.15403843,,,,,,
노을365,카페,커피 전문점,부산광역시 사하구 하단동 1165-10,,부산광역시 사하구 하신번영로261번길 10,,,128.9579326,35.10469131,,,,,,
카페CCD 송정점,카페,커피 전문점,부산광역시 해운대구 송정동 818-1,,부산광역시 해운대구 송정구덕포길 140-5,1,,129.1969347,35.16963943,,,,,,
글로벌그린,카페,커피 전문점,부산광역시 동래구 온천동 473-11,,부산광역시 동래구 온천장로 3,4,,129.0786833,35.21264867,,,,,,
블루베어커피,카페,커피 전문점,부산광역시 사하구 신평동 589-5,,부산광역시 사하구 하신번영로 195,1,,128.9589435,35.09881725,,,,,,
오를로,카페,커피 전문점,부산광역시 수영구 민락동 110-70,1~3층,부산광역시 수영구 광안해변로 364-9,,,129.1327178,35.15554917,,,,,,
카페포토이,카페,커피 전문점,부산광역시 수영구 망미동 826-62,,부산광역시 수영구 연수로 285-1,1,,129.1020438,35.17323441,,,,,,
카페엘,카페,커피 전문점,부산광역시 강서구 명지동 3599-1,이편한세상명지,부산광역시 강서구 명지국제2로 80,1,,128.9084136,35.09875828,,,,,,
용,카페,기타 비알코올 음료점업,부산광역시 영도구 대교동1가 183-9,,부산광역시 영도구 태종로73번길 12,,,129.0393934,35.09301139,,,,,,
금샘다방,카페,커피 전문점,부산광역시 금정구 남산동 962-34,,부산광역시 금정구 금샘로 574,2,,129.0852942,35.27357859,,,,,,
동서대 구내북카페,카페,커피 전문점,부산광역시 사상구 주례동 88,,부산광역시 사상구 주례로 47,,,129.0070247,35.14613539,,,,,,
솔로,카페,커피 전문점,부산광역시 수영구 광안동 202-6,태민빌딩,부산광역시 수영구 광남로 88,2,,129.1144648,35.14982251,,,,,,
청솔로9 명지점 ,카페,커피 전문점,부산광역시 강서구 명지동 3603-5,퍼스트삼융,부산광역시 강서구 명지국제2로28번길 26,,,128.9092296,35.0933112,,,,,,
카페삼짇날,카페,커피 전문점,부산광역시 부산진구 전포동 313-26,좌측호,부산광역시 부산진구 동성로49번길 34,,,129.0664963,35.15504813,,,,,,
카리나,카페,커피 전문점,부산광역시 중구 창선동2가 47-1,,부산광역시 중구 광복로 38,,,129.0291284,35.09911341,,,,,,
카페051 양정대원칸타빌점,카페,커피 전문점,부산광역시 부산진구 양정동 393-17,,부산광역시 부산진구 중앙대로909번길 8,1,,129.0695858,35.17174793,,,,,,
카페퓌베리,카페,커피 전문점,부산광역시 기장군 기장읍 청강리 28-5,,부산광역시 기장군 기장읍 기장대로 535-8,,,129.2198847,35.24313104,,,,,,
슈룹,카페,커피 전문점,부산광역시 동래구 명륜동 691-9,,부산광역시 동래구 명륜로187번길 40-5,3,,129.080434,35.21111367,,,,,,
아보,카페,커피 전문점,부산광역시 기장군 기장읍 동부리 125-10,,부산광역시 기장군 기장읍 차성동로87번길 27,1,,129.2151513,35.24557874,,,,,,
소담,카페,커피 전문점,부산광역시 기장군 장안읍 기룡리 1067-96,,부산광역시 기장군 장안읍 장안로 90,1,,129.254025,35.34779393,,,,,,
수원지,카페,커피 전문점,부산광역시 부산진구 양정동 85-10,,부산광역시 부산진구 연수로54번길 33,1,,129.077689,35.17361874,,,,,,
나우커피 부산엄궁점,카페,자동 판매기 운영업,부산광역시 사상구 엄궁동 46,,부산광역시 사상구 엄궁로179번길 7,1,,128.9751323,35.12896946,,,,,,
이노비젼,카페,커피 전문점,부산광역시 동래구 온천동 750-88,,부산광역시 동래구 중앙대로1367번길 44-18,,,129.0760301,35.2106486,,,,,,
텐퍼센트 반여선수촌점,카페,커피 전문점,부산광역시 해운대구 반여동 1459-9,,부산광역시 해운대구 선수촌로 86-7,,,129.1196139,35.20151248,,,,,,
영커피 해운대백병원점,카페,커피 전문점,부산광역시 해운대구 좌동 1431,아이에스프라자,부산광역시 해운대구 좌동순환로249번길 21,,,129.1818269,35.17430114,,,,,,
릴리브,카페,커피 전문점,부산광역시 수영구 민락동 102-2,,부산광역시 수영구 광안해변로 423-1,1,,129.1297093,35.15926078,,,,,,
더가가,카페,기타 비알코올 음료점업,부산광역시 부산진구 당감동 70-5,세원수아파트,부산광역시 부산진구 가야대로703번길 26,1,,129.0485891,35.15811893,,,,,,
설빙 부산송도점,카페,기타 비알코올 음료점업,부산광역시 서구 암남동 235,,부산광역시 서구 송도해변로 93,,,129.0174415,35.07694125,,,,,,
카페샤모니,카페,커피 전문점,부산광역시 강서구 명지동 1300-3,1~2층,부산광역시 강서구 영강길17번가길 42,,,128.9285403,35.10502742,,,,,,
정재커피,카페,커피 전문점,부산광역시 연제구 연산동 585-1,,부산광역시 연제구 중앙대로1150번길 36,1,,129.0826797,35.19027645,,,,,,
작은창큰풍경,카페,커피 전문점,부산광역시 해운대구 중동 1533-3,힐탑프라자,부산광역시 해운대구 달맞이길117번나길 162,3,,129.1853345,35.16347832,,,,,,
라이프라이크,카페,커피 전문점,부산광역시 기장군 일광읍 동백리 152-1,,부산광역시 기장군 일광읍 일광로 524,1,,129.2569154,35.28918634,,,,,,
카페에쯔,카페,커피 전문점,부산광역시 연제구 연산동 1384-17,,부산광역시 연제구 월드컵대로145번길 67,1,,129.0789973,35.18361713,,,,,,
반달커피 해운대점,카페,커피 전문점,부산광역시 해운대구 중동 1153-8,,부산광역시 해운대구 해운대해변로 322,1,,129.1658796,35.1622779,,,,,,
나무조아,카페,커피 전문점,부산광역시 서구 서대신동3가 8-6,,부산광역시 서구 꽃마을로 162,,,129.0073897,35.12749304,,,,,,
더벤티 정관방곡점,카페,커피 전문점,부산광역시 기장군 정관읍 방곡리 400-1,,부산광역시 기장군 정관읍 방곡3로 2,1,,129.189175,35.32482757,,,,,,
이디야 서면제일점,카페,커피 전문점,부산광역시 부산진구 부전동 160-8,동,부산광역시 부산진구 서전로10번길 36,1,,129.0597266,35.15637101,,,,,,
밸라다 부산본점,카페,커피 전문점,부산광역시 부산진구 당감동 71-8,,부산광역시 부산진구 가야대로703번길 15,1,,129.0481438,35.15786513,,,,,,
더리터 다대라브랜드점,카페,커피 전문점,부산광역시 사하구 다대동 1573,에스엔씨빌딩,부산광역시 사하구 다송로72번길 82,,,128.9798223,35.06029467,,,,,,
051커피 협성휴포레점,카페,커피 전문점,부산광역시 강서구 명지동 3502-2,일부호,부산광역시 강서구 명지국제12로 3-7,1,,128.9213807,35.10555569,,,,,,
더웨이닝커피,카페,비주거용 건물 임대업,부산광역시 금정구 구서동 1070,구서에스케이뷰2단지,부산광역시 금정구 금샘로245번길 11,1,,129.0846449,35.24480723,,,,,,
콩카페,카페,커피 전문점,부산광역시 북구 구포동 1249-17,,부산광역시 북구 시랑로170번길 60,1,,129.0110494,35.19462366,,,,,,
팜앤커피팜&커피,카페,커피 전문점,부산광역시 금정구 구서동 463-26,,부산광역시 금정구 금강로380번길 42,,,129.0880836,35.24354039,,,,,,
오라,카페,커피 전문점,부산광역시 동래구 온천동 192-14,,부산광역시 동래구 금강로 92,1,,129.0788293,35.21707983,,,,,,
호야팡야,카페,커피 전문점,부산광역시 부산진구 전포동 361-13,,부산광역시 부산진구 전포대로176번길 12-8,1,,129.066342,35.15198681,,,,,,
베르크커피로스터스,카페,커피 전문점,부산광역시 부산진구 전포동 356-6,지상,부산광역시 부산진구 서전로58번길 115,2,,129.066281,35.15260966,,,,,,
메가엠지씨커피 좌동재래시장점,카페,커피 전문점,부산광역시 해운대구 좌동 1295-13,일부호,부산광역시 해운대구 대천로106번길 29,1,,129.1750488,35.17405363,,,,,,
써니빌커피하우스,카페,커피 전문점,부산광역시 중구 중앙동1가 22-21,,부산광역시 중구 해관로 22-1,,,129.0359029,35.10079313,,,,,,
노스커피장전점,카페,커피 전문점,부산광역시 금정구 장전동 146-5,,부산광역시 금정구 수림로85번길 53,1,,129.0831956,35.23753291,,,평일 07:30/주말 08:00,22:00,,
카페051 부암역점,카페,커피 전문점,부산광역시 부산진구 범천동 1059-26,,부산광역시 부산진구 가야대로 714-1,1,,129.049811,35.15696279,,,,,,
문앤썬,카페,커피 전문점,부산광역시 기장군 일광읍 학리 251-11,,부산광역시 기장군 일광읍 학리등대로 101,,,129.2474268,35.25922098,,,,,,
여인다방,카페,기타 비알코올 음료점업,부산광역시 사상구 덕포동 422-27,,부산광역시 사상구 사상로 291,1,,128.9826532,35.17085051,,,,,,
꽃다방,카페,커피 전문점,부산광역시 강서구 명지동 3587-1,씨엘주차타워,부산광역시 강서구 명지국제8로10번길 51,,,128.9015789,35.09390009,,,,,,
망미제과,카페,커피 전문점,부산광역시 수영구 망미동 208-6,복음,부산광역시 수영구 구락로 90,,,129.1177284,35.17497967,,,,,,
필소굿커피,카페,커피 전문점,부산광역시 수영구 남천동 561,3~4층남천마리나,부산광역시 수영구 광안해변로 44,,,129.1147127,35.13862586,,,,,,
511더치커피,카페,커피 전문점,부산광역시 동구 수정동 231-22,,부산광역시 동구 고관로 135,1,,129.048058,35.13036299,,,,,,
하녹,카페,커피 전문점,부산광역시 기장군 기장읍 내리 567,,부산광역시 기장군 기장읍 내리길 146-5,,,129.1996583,35.21734085,,,,,,
두살차이,카페,커피 전문점,부산광역시 연제구 연산동 392-28,,부산광역시 연제구 안연로 12,1,,129.100935,35.18857323,,,,,,
메가커피 광안자이점,카페,커피 전문점,부산광역시 수영구 광안동 384-11,,부산광역시 수영구 호암로29번길 63,,,129.1103477,35.15396753,,,,,,
브에너스커피,카페,커피 전문점,부산광역시 해운대구 우동 1408,해운대아이파크,부산광역시 해운대구 마린시티2로 38,2,,129.1433344,35.15703787,,,,,,
컴포즈커피 장림동원점,카페,커피 전문점,부산광역시 사하구 장림동 817-8,,부산광역시 사하구 하신중앙로 12,1,,128.9649585,35.07987602,,,,,,
어벤더치 부산대정문점,카페,커피 전문점,부산광역시 금정구 장전동 402-3,,부산광역시 금정구 부산대학로64번길 6,1,,129.084411,35.23180771,,,평일 08:00/주말 09:00,평일 20:00/주말 21:00,,
어랏커피 명지공원점,카페,커피 전문점,부산광역시 강서구 명지동 3449-9,,부산광역시 강서구 명지국제6로220번길 37,1,,128.9247238,35.09662588,,,,,,
지하다방,카페,기타 비알코올 음료점업,부산광역시 사상구 모라동 647-1,명칭없음,부산광역시 사상구 사상로 527-1,,,128.9889852,35.19154573,,,,,,
나나이로상점,카페,커피 전문점,부산광역시 부산진구 가야동 230-6,,부산광역시 부산진구 가야대로 560-1,,,129.0332744,35.15386217,,,,,,
뭉개뭉개,카페,기타 비알코올 음료점업,부산광역시 부산진구 당감동 282-5,,부산광역시 부산진구 당감로 46,3,,129.0393082,35.16568315,,,,,,
커피하우스4,카페,커피 전문점,부산광역시 사상구 모라동 453,복합주민센터,부산광역시 사상구 모라로 93,1,,128.9898732,35.18699824,,,,,,
더벤티부민점,카페,커피 전문점,부산광역시 서구 부민동1가 16-1,한웅캠퍼스,부산광역시 서구 구덕로 220,,,129.0202947,35.1041724,,,,,,
카페일쁘로푸모,카페,커피 전문점,부산광역시 금정구 장전동 409-30,,부산광역시 금정구 부산대학로64번길 24,,,129.0846564,35.23281277,,,,,,
디앤피,카페,커피 전문점,부산광역시 남구 문현동 1016-7,금호주택,부산광역시 남구 장고개로 78,,,129.0701843,35.13214069,,,,,,
카페쵸이,카페,커피 전문점,부산광역시 남구 대연동 882-9,,부산광역시 남구 유엔평화로 45,1,,129.0924196,35.13085751,,,,,,
카페824,카페,커피 전문점,부산광역시 기장군 기장읍 대변리 1-2,,부산광역시 기장군 기장읍 기장해안로 824,1,,129.2419868,35.22963923,,,,,,
엠제이케이,카페,커피 전문점,부산광역시 해운대구 재송동 1200,더샵센텀파크1차,부산광역시 해운대구 센텀중앙로 145,,,129.1235916,35.17676038,,,,,,
셰르라이프앤스타일,카페,커피 전문점,부산광역시 부산진구 전포동 307-27,,부산광역시 부산진구 서전로68번길 40,2,,129.0671474,35.15606434,,,,,,
바론,카페,커피 전문점,부산광역시 강서구 명지동 3357-7,,부산광역시 강서구 명지국제8로 245,9,,128.9198315,35.09841574,,,,,,
파이,카페,커피 전문점,부산광역시 남구 문현동 1229-2,부산국제금융센터,부산광역시 남구 문현금융로 40,3,,129.0658629,35.14648889,,,,,,
정담은청,카페,커피 전문점,부산광역시 서구 동대신동3가 471-5,휴그린3차,부산광역시 서구 구덕로322번길 23,,,129.0176512,35.11303896,,,,,,
업투유,카페,커피 전문점,부산광역시 기장군 기장읍 내리 792,삼정그린코아더베스트,부산광역시 기장군 기장읍 기장대로 82-8,,,129.2071718,35.20405661,,,,,,
카페이안에,카페,커피 전문점,부산광역시 금정구 구서동 1032-3,ENI빌딩,부산광역시 금정구 금샘로 361,1,,129.0844118,35.25543576,,,,,,
카페슬로우,카페,커피 전문점,부산광역시 수영구 남천동 28-3,성산교회,부산광역시 수영구 광남로 39,1,,129.1112753,35.1465529,,,,,,
컴포즈커피 서면영광도서점,카페,커피 전문점,부산광역시 부산진구 부전동 259-19,,부산광역시 부산진구 서면문화로 8-6,1,,129.0581267,35.15863309,,,,,,
희몽,카페,커피 전문점,부산광역시 동래구 사직동 160-1,,부산광역시 동래구 중앙대로1267번길 9,1,,129.077197,35.19999497,,,,,,
제이에이치드림,카페,커피 전문점,부산광역시 강서구 명지동 3586-4,,부산광역시 강서구 명지국제8로10번길 38,1,,128.9034546,35.09440236,,,,,,
디아펠리즈,카페,커피 전문점,부산광역시 서구 암남동 595,송도풍림아이원,부산광역시 서구 암남공원로 39,,,129.0162035,35.07251902,,,,,,
컵피옥,카페,커피 전문점,부산광역시 중구 보수동2가 116-19,,부산광역시 중구 대청로 41-1,1,,129.0245069,35.10333611,,,,,,
메가엠지씨커피 부산다대낫개점,카페,커피 전문점,부산광역시 사하구 다대동 1584-6,,부산광역시 사하구 다송로72번길 67,1,,128.9804595,35.05990576,,,,,,
카페룩스,카페,커피 전문점,부산광역시 해운대구 중동 718-28,소명교회,부산광역시 해운대구 좌동순환로468번가길 87,1,,129.1748754,35.1650724,,,,,,
댄싱컵 일광점,카페,커피 전문점,부산광역시 기장군 일광읍 삼성리 880-3,,부산광역시 기장군 일광읍 해송2로 18,,,129.230242,35.26715351,,,,,,
블루샥용호 자이점,카페,커피 전문점,부산광역시 남구 용호동 197,지에스하이츠자이3차,부산광역시 남구 신선로 566,,,129.1096661,35.1326671,,,,,,
다운트,카페,커피 전문점,부산광역시 부산진구 전포동 677-14,,부산광역시 부산진구 서전로38번길 43-6,2,,129.0641306,35.1556562,,,,,,
아일랜드아카디아,카페,커피 전문점,부산광역시 강서구 대항동 187,,부산광역시 강서구 가덕해안로 1231,,,128.8268903,35.01045145,,,,,,
티플레그커피,카페,커피 전문점,부산광역시 중구 중앙동3가 12-6,,부산광역시 중구 40계단길 6,1,,129.0350462,35.10382646,,,,,,
공차 기장정관점,카페,기타 비알코올 음료점업,부산광역시 기장군 정관읍 매학리 714-8,광장프라자,부산광역시 기장군 정관읍 정관7로 9-4,,,129.1765883,35.32206321,,,,,,
인더매스시즌스,카페,커피 전문점,부산광역시 부산진구 부전동 503-15,롯데백화점,부산광역시 부산진구 가야대로 772,1,,129.0564125,35.1567968,,,,,,
바닐라스카이플라워,카페,커피 전문점,부산광역시 부산진구 전포동 357-25,,부산광역시 부산진구 동성로25번길 19,2,,129.0673346,35.15261871,,,,,,
물깜,카페,커피 전문점,부산광역시 부산진구 가야동 300-10,,부산광역시 부산진구 가야대로 570-1,2,,129.0343544,35.15405131,,,,,,
45번길카페/45번길쿠키,카페,커피 전문점,부산광역시 서구 서대신동3가 360-12,,부산광역시 서구 대영로45번길 78,1,,129.0148276,35.11283361,,,,,,
컴포즈커피 감전시장점,카페,커피 전문점,부산광역시 사상구 감전동 121-47,,부산광역시 사상구 새벽시장로103번길 51,1,,128.9855239,35.15666403,,,,,,
컴포즈 동래교차로점,카페,커피 전문점,부산광역시 동래구 온천동 1440-1,,부산광역시 동래구 충렬대로 160,,,129.0773854,35.20437135,,,,,,
1인사무소,카페,커피 전문점,부산광역시 수영구 남천동 31-2,백산,부산광역시 수영구 광남로 55,,,129.1122307,35.14743739,,,,,,
베러먼데이 장전역점,카페,커피 전문점,부산광역시 금정구 장전동 222-1,,부산광역시 금정구 금강로 336,1,,129.0866531,35.23786983,,,평일 09:00/주말 09:30,22:15,,
모아,카페,기타 비알코올 음료점업,부산광역시 동래구 명장동 489-22,,부산광역시 동래구 명장로63번길 140,2,,129.1043706,35.20983472,,,,,,
하삼동 영도점,카페,커피 전문점,부산광역시 영도구 영선동1가 22-1,,부산광역시 영도구 태종로 108,1,,129.0424464,35.09101344,,,,,,
동네사람들,카페,커피 전문점,부산광역시 남구 용호동 51-14,다온하우스,부산광역시 남구 동명로105번길 83,,,129.1081767,35.12382565,,,,,,
카페헤븐,카페,커피 전문점,부산광역시 연제구 거제동 878-7,드림센터,부산광역시 연제구 아시아드대로 12,1,,129.070347,35.18661302,,,,,,
모카비치,카페,커피 전문점,부산광역시 해운대구 송정동 759-5,,부산광역시 해운대구 송정구덕포길 2,,,129.1970276,35.17554016,,,,,,
아델리오,카페,커피 전문점,부산광역시 부산진구 전포동 658-10,,부산광역시 부산진구 동천로132번길 4,1,,129.0625625,35.1604771,,,,,,
커피향기,카페,커피 전문점,부산광역시 수영구 남천동 556,남천해변시장,부산광역시 수영구 광안해변로15번길 77,,,129.1090438,35.13915725,,,,,,
하이오,카페,커피 전문점,부산광역시 부산진구 부전동 232-33,,부산광역시 부산진구 중앙대로 679-5,1,,129.0587512,35.1533687,,,,,,
션앤,카페,커피 전문점,부산광역시 금정구 금성동 219,,부산광역시 금정구 산성로 436,,,129.054393,35.25090288,,,,,,
하이오커피 사상역점,카페,커피 전문점,부산광역시 사상구 괘법동 272-1,,부산광역시 사상구 사상로 224,1,,128.9835415,35.16495129,,,,,,
빈크러쉬커피컴퍼니,카페,커피 전문점,부산광역시 기장군 장안읍 월내리 553,,부산광역시 기장군 장안읍 해맞이로 286,,,129.2700831,35.32266803,,,,,,
텐퍼센트커피 유엔공원점,카페,커피 전문점,부산광역시 남구 대연동 735-6,,부산광역시 남구 유엔평화로 109,2,,129.0957913,35.12631146,,,,,,
남천카페,카페,커피 전문점,부산광역시 수영구 남천동 13-7,,부산광역시 수영구 남천동로19번길 23,1,,129.1106843,35.1432109,,,,,,
클라우드나인,카페,커피 전문점,부산광역시 해운대구 반여동 840,,부산광역시 해운대구 반여로185번길 12,,,129.1277484,35.20737137,,,,,,
버즈,카페,기타 비알코올 음료점업,부산광역시 사상구 주례동 88,서대학교,부산광역시 사상구 주례로 47,1,,129.0110683,35.14103076,,,,,,
카페제이,카페,커피 전문점,부산광역시 부산진구 개금동 496-18,성문학원,부산광역시 부산진구 가야대로 414,2,,129.0178107,35.15194898,,,,,,
디어디저트,카페,커피 전문점,부산광역시 북구 덕천동 305-9,,부산광역시 북구 만덕대로65번길 89,,,129.0104706,35.21567549,,,,,,
우리동네커피,카페,커피 전문점,부산광역시 동래구 안락동 433-24,,부산광역시 동래구 안연로110번길 9,,,129.0985695,35.19689583,,,,,,
대동커피공장,카페,커피 전문점,부산광역시 금정구 장전동 386-16,,부산광역시 금정구 부산대학로64번길 75,1,,129.0851687,35.23480449,,,10:00,22:00,,
부산진지역자활센터,카페,기타 비알코올 음료점업,부산광역시 부산진구 부암동 666-16,부산진구청,부산광역시 부산진구 시민공원로 30,,,129.0531847,35.16283529,,,,,,
커피나무,카페,커피 전문점,부산광역시 동래구 안락동 765-1,,부산광역시 동래구 안연로109번길 24,1,,129.0966228,35.19718189,,,,,,
광복동커피,카페,커피 전문점,부산광역시 중구 신창동1가 2-1,,부산광역시 중구 광복중앙로 31,,,129.0305732,35.10209914,,,,,,
건다방,카페,기타 비알코올 음료점업,부산광역시 남구 대연동 510-9,,부산광역시 남구 용소로40번길 24,1,,129.0996948,35.13394877,,,,,,
요기,카페,커피 전문점,부산광역시 남구 대연동 50-48,,부산광역시 남구 수영로334번길 56-3,1,,129.1035532,35.1359635,,,,,,
더벤티 국제시장점,카페,커피 전문점,부산광역시 중구 보수동1가 144-1,이경빌딩,부산광역시 중구 대청로 71-1,1,,129.0277845,35.10329032,,,,,,
카페Ri카페리,카페,커피 전문점,부산광역시 동래구 명륜동 644-10,,부산광역시 동래구 동래로79번길 11,1,,129.0814633,35.2088521,,,,,,
더블에잇,카페,커피 전문점,부산광역시 북구 덕천동 347-7,,부산광역시 북구 만덕대로15번길 32,1,,129.006481,35.21196581,,,,,,
컴포즈커피 정관매학리점,카페,커피 전문점,부산광역시 기장군 정관읍 매학리 785-11,,부산광역시 기장군 정관읍 달산길 19,1,,129.1829765,35.31920859,,,,,,
컴포즈커피 이편한서면센트럴점,카페,커피 전문점,부산광역시 부산진구 범천동 1652,E편한세상서면더센트럴,부산광역시 부산진구 신암로 133,2,,129.0498958,35.15203199,,,,,,
영배,카페,커피 전문점,부산광역시 사하구 다대동 1095-2,,부산광역시 사하구 다대로 542-2,,,128.9710374,35.05822987,,,,,,
메가엠지씨커피 사직역점,카페,커피 전문점,부산광역시 동래구 사직동 96-5,,부산광역시 동래구 아시아드대로 145,1,,129.0652832,35.19731514,,,,,,
열혈카페,카페,커피 전문점,부산광역시 부산진구 부전동 414-7,,부산광역시 부산진구 부전로111번길 18,2,,129.0537717,35.15999569,,,,,,
카페좋은날풍경,카페,커피 전문점,부산광역시 금정구 구서동 159-3,,부산광역시 금정구 두실로 19,1,,129.0891889,35.26049887,,,,,,
도피오커피 벡스코점,카페,커피 전문점,부산광역시 해운대구 우동 1500,일부호벡스코,부산광역시 해운대구 APEC로 55,1,,129.1360119,35.16906239,,,,,,
원유로스페셜티 부산사하당리점,카페,커피 전문점,부산광역시 사하구 당리동 311-21,,부산광역시 사하구 제석로 61,1,,128.9746915,35.10616769,,,,,,
카페051 해운대백병원점,카페,커피 전문점,부산광역시 해운대구 좌동 1433-2,일부호,부산광역시 해운대구 좌동순환로 243,,,129.1808792,35.17415601,,,,,,
앙꼬빈,카페,커피 전문점,부산광역시 금정구 부곡동 896-19,,부산광역시 금정구 오시게로12번길 10,,,129.0864231,35.21859824,,,,,,
설레봄;프룻,카페,기타 비알코올 음료점업,부산광역시 서구 서대신동2가 570,대신푸르지오2차,부산광역시 서구 고운들로 181,,,129.0135359,35.10847536,,,,,,
힐링하우스,카페,커피 전문점,부산광역시 영도구 영선동4가 1065,,부산광역시 영도구 흰여울길 92,,,129.0455973,35.07801043,,,,,,
미니카페,카페,커피 전문점,부산광역시 해운대구 중동 1754-3,해운대이안오피스텔,부산광역시 해운대구 좌동순환로 5,1,,129.1672765,35.16694785,,,,,,
카페호밀,카페,커피 전문점,부산광역시 금정구 장전동 503-6,,부산광역시 금정구 금샘로 34,2,,129.0772497,35.22877685,"월요일, 화요일",1,10:30,일요일 17:00/나머지 18:00,,
오슬로우커피,카페,커피 전문점,부산광역시 해운대구 중동 1378-28,,부산광역시 해운대구 중동1로37번길 11,1,,129.1638257,35.16262101,,,,,,
더벤티,카페,커피 전문점,부산광역시 연제구 연산동 726-18,,부산광역시 연제구 중앙대로 1110,,,129.0818764,35.18675774,,,,,,
월든,카페,커피 전문점,부산광역시 사하구 하단동 595-27,,부산광역시 사하구 낙동남로1390번길 16,,,128.9635896,35.10508642,,,,,,
카페309,카페,기타 비알코올 음료점업,부산광역시 사상구 덕포동 421-1,,부산광역시 사상구 사상로309번길 27,1,,128.9817021,35.17236203,,,,,,
오빠커피 수영연수로점,카페,커피 전문점,부산광역시 수영구 광안동 1071-4,,부산광역시 수영구 광서로10번길 74,1,,129.1141618,35.16736421,,,,,,
젬스톤B,카페,커피 전문점,부산광역시 해운대구 송정동 802-1,,부산광역시 해운대구 송정구덕포길 100,,,129.1975419,35.17140364,,,,,,
수연,카페,기타 비알코올 음료점업,부산광역시 사상구 괘법동 833-10,,부산광역시 사상구 사상로250번길 5,2,,128.9827157,35.1671006,,,,,,
공차 부산역광장점,카페,기타 비알코올 음료점업,부산광역시 동구 초량동 1208-18,,부산광역시 동구 중앙대로 197,1,,129.0392095,35.11512026,,,,,,
코끼리찻집,카페,기타 비알코올 음료점업,부산광역시 사하구 다대동 1582-13,,부산광역시 사하구 다송로72번길 39,2,,128.9820474,35.06030338,,,,,,
비베,카페,커피 전문점,부산광역시 기장군 기장읍 대라리 126-8,,부산광역시 기장군 기장읍 차성남로 57,1,,129.2144467,35.24148253,,,,,,
카페051 명지국제금강펜테리움점 ,카페,커피 전문점,부산광역시 강서구 명지동 3354,명지금강펜테리움센트럴파크1차,부산광역시 강서구 명지국제5로 59,,,128.9192715,35.10072266,,,,,,
더머그,카페,커피 전문점,부산광역시 부산진구 당감동 807-4,동일스위트,부산광역시 부산진구 백양관문로 115-1,1,,129.0258905,35.16716099,,,,,,
서울커피숍,카페,커피 전문점,부산광역시 부산진구 가야동 617-19,,부산광역시 부산진구 냉정로253번길 16,,,129.0280868,35.15130873,,,,,,
카페로코,카페,커피 전문점,부산광역시 해운대구 중동 1494-19,빌라로코,부산광역시 해운대구 달맞이길117번다길 115,1,,129.18054,35.15940149,,,,,,
록다방,카페,기타 비알코올 음료점업,부산광역시 동구 수정동 189-14,,부산광역시 동구 중앙대로371번길 19,,,129.0474896,35.12912898,,,,,,
중앙다방,카페,기타 비알코올 음료점업,부산광역시 동구 초량동 236-4,,부산광역시 동구 중앙대로231번길 36,,,129.0392613,35.1185168,,,,,,
다사동,카페,기타 비알코올 음료점업,부산광역시 수영구 광안동 735-1,협성엠파이어,부산광역시 수영구 장대골로19번길 20,,,129.1108501,35.15854564,,,,,,
카페벗,카페,커피 전문점,부산광역시 북구 덕천동 373-1,덕천삼정그린코아,부산광역시 북구 만덕대로155번길 9,,,129.0216126,35.21375964,,,,,,
스트리트커피,카페,커피 전문점,부산광역시 중구 중앙동4가 85-1,,부산광역시 중구 중앙대로116번길 12,1,,129.0378346,35.10747441,,,,,,
브라보,카페,커피 전문점,부산광역시 기장군 기장읍 죽성리 396-3,,부산광역시 기장군 기장읍 기장해안로 905-1,,,129.2429106,35.23566859,,,,,,
히얼이즈커피 범일동일타워점,카페,커피 전문점,부산광역시 동구 범일동 830-140,동일타워,부산광역시 동구 조방로 14,1,,129.0634506,35.13872593,,,,,,
동백에프앤비 동백커피,카페,커피 전문점,부산광역시 해운대구 우동 1470,에이스하이테크,부산광역시 해운대구 센텀중앙로 48,,,129.1298597,35.17301866,,,,,,
빌라0429,카페,커피 전문점,부산광역시 동래구 사직동 115-6,,부산광역시 동래구 여고로52번길 8,1,,129.0695521,35.19552103,,,,,,
팔구,카페,기타 비알코올 음료점업,부산광역시 부산진구 당감동 479-2,무궁화,부산광역시 부산진구 당감로17번길 90,,,129.0340467,35.16328442,,,,,,
그라찌에 영산대점,카페,커피 전문점,부산광역시 해운대구 반송동 248,,부산광역시 해운대구 반송순환로 142,,,129.1590563,35.22415474,,,,,,
메그네이트,카페,커피 전문점,부산광역시 남구 대연동 1786-19,,부산광역시 남구 진남로 135,1,,129.080116,35.13877433,,,,,,
커피식스 부산국제금융센터점,카페,커피 전문점,부산광역시 남구 문현동 1229-2,부산국제금융센터,부산광역시 남구 문현금융로 40,1,,129.0658629,35.14648889,,,,,,
키친파이브,카페,커피 전문점,부산광역시 영도구 봉래동2가 145-1,무명일기,부산광역시 영도구 봉래나루로 178,,,129.0434919,35.09643891,,,,,,
사직텐퍼센트 아시아드점,카페,커피 전문점,부산광역시 연제구 거제동 900-7,,부산광역시 연제구 아시아드대로 79,1,,129.0669045,35.19154711,,,,,,
라운드어바웃커피,카페,커피 전문점,부산광역시 동래구 낙민동 198-16,,부산광역시 동래구 충렬대로 296,,,129.0912563,35.19982498,,,,,,
카페노크노크,카페,커피 전문점,부산광역시 기장군 일광읍 이천리 874-6,,부산광역시 기장군 일광읍 이천길 25,,,129.2364271,35.26512893,,,,,,
벨라다,카페,피자; 햄버거; 샌드위치 및 유사 음식점업,부산광역시 부산진구 전포동 908,서면아이파크1단지,부산광역시 부산진구 동성로 50,,,129.0687145,35.1551184,,,,,,
컴포즈커피,카페,커피 전문점,부산광역시 부산진구 초읍동 217-30,,부산광역시 부산진구 성지로 83,1,,129.0534545,35.17792518,,,,,,
컴포즈커피 동래롯데점,카페,커피 전문점,부산광역시 동래구 온천동 707-1,,부산광역시 동래구 중앙대로1367번길 25,1,,129.0764854,35.2095594,,,,,,
카페니어,카페,커피 전문점,부산광역시 사상구 덕포동 408-8,,부산광역시 사상구 사상로342번길 28,1,,128.9858887,35.17482574,,,,,,
잭스빈커피,카페,커피 전문점,부산광역시 수영구 광안동 774-4,,부산광역시 수영구 수영로 563-1,1,,129.1124128,35.1561754,,,,,,
티볼리,카페,커피 전문점,부산광역시 부산진구 당감동 430-1,,부산광역시 부산진구 당감로 35-1,,,129.0391426,35.16476675,,,,,,
뉴클라라,카페,기타 비알코올 음료점업,부산광역시 부산진구 부전동 261-2,,부산광역시 부산진구 부전로152번길 68,2,,129.0584719,35.15926705,,,,,,
브로드웨이커피 프라임호텔점,카페,커피 전문점,부산광역시 동구 수정동 1-62,프라임관광호텔,부산광역시 동구 중앙대로 399,1,,129.0501915,35.13057923,,,,,,
라라샹즈,카페,커피 전문점,부산광역시 부산진구 부전동 224-15,,부산광역시 부산진구 동천로 45,1,,129.0621948,35.15286854,,,,,,
블루샥 정관점,카페,커피 전문점,부산광역시 기장군 정관읍 매학리 712-3,광장아울렛,부산광역시 기장군 정관읍 정관7로 3,1,,129.1759486,35.32239913,,,,,,
투썸 다송로점,카페,커피 전문점,부산광역시 사하구 다대동 1582-22,,부산광역시 사하구 다송로84번길 38,,,128.9823044,35.06005586,,,,,,
이디야커피 롯데마트부산화명점 ,카페,커피 전문점,부산광역시 북구 화명동 2273,카페롯데마트,부산광역시 북구 화명대로 47,1,,129.0130166,35.23517036,,,,,,
텐퍼센트 동래래미안점,카페,커피 전문점,부산광역시 동래구 온천동 1853,동래래미안아이파크,부산광역시 동래구 충렬대로107번길 65,,,129.067458,35.21208399,,,,,,
316카페이룸,카페,커피 전문점,부산광역시 영도구 동삼동 1163,,부산광역시 영도구 해양로301번길 36,1,,129.0779546,35.07873976,,,,,,
연제지역자활센터;카페가온비,카페,커피 전문점,부산광역시 연제구 연산동 1000,연산동부산광역시청,부산광역시 연제구 중앙대로 1001,,,129.0750946,35.17992627,,,,,,
아임프루트 명지점,카페,기타 비알코올 음료점업,부산광역시 강서구 명지동 3232,영어도시퀸덤1차아인슈타인타운,부산광역시 강서구 명지오션시티11로 51,,,128.8998471,35.08636618,,,,,,
에이비씨커피,카페,커피 전문점,부산광역시 부산진구 부전동 485-26,C메디컬센터,부산광역시 부산진구 가야대로 769,1,,129.0557844,35.157997,,,,,,
주희커피,카페,커피 전문점,부산광역시 남구 대연동 291-7,,부산광역시 남구 못골로 81,,,129.0914029,35.13613784,,,,,,
쿤스트204,카페,커피 전문점,부산광역시 영도구 영선동4가 920,,부산광역시 영도구 절영로 204,1,,129.0445222,35.07929922,,,,,,
브라우니,카페,커피 전문점,부산광역시 연제구 연산동 2262,연산자이,부산광역시 연제구 과정로343번길 43,,,129.0897871,35.18790108,,,,,,
카페바이버,카페,커피 전문점,부산광역시 사상구 학장동 273-13,,부산광역시 사상구 학감대로191번길 16,,,128.9881951,35.14874393,,,,,,
수미상회펄슈가,카페,커피 전문점,부산광역시 부산진구 양정동 331-11,중앙엘리시안,부산광역시 부산진구 연수로11번길 11,,,129.0728271,35.17405352,,,,,,
프라하,카페,기타 비알코올 음료점업,부산광역시 서구 부민동2가 10-24,,부산광역시 서구 구덕로 203-6,1,,129.0196068,35.10295827,,,,,,
영인가배,카페,커피 전문점,부산광역시 금정구 장전동 646-18,산수유,부산광역시 금정구 식물원로 3,1,,129.0869304,35.22340163,,,평일 09:00/주말 11:00,월요일 18:00/나머지 22:00,,
매머드익스프레스 경성대점,카페,커피 전문점,부산광역시 남구 대연동 406-1,,부산광역시 남구 수영로 295,1,,129.0983137,35.13698257,,,,,,
원두가땡긴다,카페,커피 전문점,부산광역시 기장군 일광읍 동백리 305-5,,부산광역시 기장군 일광읍 일광로 463,1,,129.2563792,35.28412312,,,,,,
카페드롭탑 국제여객터미널,카페,커피 전문점,부산광역시 동구 초량동 45-39,국제여객터미널,부산광역시 동구 충장대로 206,2,,129.0491459,35.11774625,,,,,,
카페신평,카페,커피 전문점,부산광역시 사하구 신평동 84-90,명칭없음,부산광역시 사하구 신산로 177-10,1,,128.9756468,35.09076888,,,,,,
컴포즈 개금역점,카페,커피 전문점,부산광역시 부산진구 개금동 177-5,컴포즈커피,부산광역시 부산진구 가야대로454번길 14,1,,129.0216422,35.15247985,,,,,,
컴포즈커피 괘법점,카페,커피 전문점,부산광역시 사상구 삼락동 418-8,동양한신,부산광역시 사상구 운산로 21,,,128.9792461,35.16929314,,,,,,
노브엘,카페,커피 전문점,부산광역시 수영구 민락동 336-48,민락동센텀메르빌아파트,부산광역시 수영구 광안해변로 446,1,,129.1298882,35.16106894,,,,,,
카페051 부산진경찰서점,카페,커피 전문점,부산광역시 부산진구 부전동 474-109,,부산광역시 부산진구 새싹로29번길 31,1,,129.0553196,35.1600235,,,,,,
하삼동커피 명지국제신도시점,카페,커피 전문점,부산광역시 강서구 명지동 3412-6,,부산광역시 강서구 명지국제8로 246,,,128.9196184,35.09774322,,,,,,
벤티스토리,카페,커피 전문점,부산광역시 북구 덕천동 410-1,은빛맨션,부산광역시 북구 만덕대로78번길 15,,,129.0137364,35.21141275,,,,,,
부산영도지역자활센터 카페마렌 청학마루점,카페,커피 전문점,부산광역시 영도구 청학동 447-5,어울림마당,부산광역시 영도구 청학남로13번길 18,3,,129.0595,35.09075191,,,,,,
컴포즈 벤처타워모라점,카페,커피 전문점,부산광역시 사상구 모라동 1375,부산벤처타워,부산광역시 사상구 모라로 22,1,,128.9847212,35.19090379,,,,,,
별장,카페,커피 전문점,부산광역시 해운대구 중동 669-7,,부산광역시 해운대구 청사포로58번길 28,1,,129.1864791,35.16196177,,,,,,
몰로,카페,커피 전문점,부산광역시 수영구 남천동 209,,부산광역시 수영구 황령대로489번길 49,,,129.1093064,35.13998174,,,,,,
언벤트커피,카페,커피 전문점,부산광역시 사상구 괘법동 559-7,제이엠빌딩,부산광역시 사상구 광장로 62,4,,128.9832537,35.16168473,,,,,,
엔제리너스,카페,커피 전문점,부산광역시 기장군 기장읍 동부리 365-1,,부산광역시 기장군 기장읍 차성동로 110,,,129.2171585,35.24748839,,,,,,
더토브카페,카페,커피 전문점,부산광역시 강서구 명지동 3251-12,,부산광역시 강서구 명지오션시티8로 15,1,,128.9115715,35.08701096,,,,,,
카페아델리,카페,커피 전문점,부산광역시 연제구 거제동 419-2,거제역,부산광역시 연제구 법원남로9번길 17,2,,129.0742955,35.18951024,,,,,,
커피또봐,카페,커피 전문점,부산광역시 동구 범일동 71-3,명칭없음,부산광역시 동구 중앙대로 519-20,1,,129.0562374,35.1402454,,,,,,
행복커피,카페,커피 전문점,부산광역시 해운대구 반송동 250-242,행복경로당,부산광역시 해운대구 아랫반송로29번길 20,1,,129.1495141,35.22460399,,,,,,
하삼동커피 괴정점,카페,커피 전문점,부산광역시 사하구 괴정동 749-2,신동양상가,부산광역시 사하구 낙동대로 271,2,,128.9870485,35.09885538,,,,,,
메가엠지씨커피 해운대미포점,카페,커피 전문점,부산광역시 해운대구 중동 1087-25,,부산광역시 해운대구 달맞이길50번길 26,2,,129.1707249,35.16044293,,,,,,
투썸플레이스 부산대연혁신점,카페,커피 전문점,부산광역시 남구 대연동 93-6,대연힐프라자,부산광역시 남구 수영로325번길 26,1,,129.1015466,35.13941371,,,,,,
하이오커피 장전역점,카페,커피 전문점,부산광역시 금정구 부곡동 224-59,,부산광역시 금정구 중앙대로1719번길 62,1,,129.0887841,35.23787812,,,,,,
컴포즈커피 연산LG점,카페,커피 전문점,부산광역시 연제구 연산동 40-12,,부산광역시 연제구 토곡로 21,1,,129.1051059,35.1821747,,,,,,
카페플로스,카페,커피 전문점,부산광역시 수영구 남천동 69-21,,부산광역시 수영구 수영로 405,1,,129.1080546,35.14249072,,,,,,
투썸플레이스 부산서대신점,카페,커피 전문점,부산광역시 서구 서대신동2가 3-12,,부산광역시 서구 구덕로321번길 11,,,129.016062,35.11219127,,,,,,
커피판다,카페,커피 전문점,부산광역시 기장군 정관읍 용수리 1312-6,,부산광역시 기장군 정관읍 정관5로 86-15,,,129.1785632,35.32559605,,,,,,
커피하루,카페,커피 전문점,부산광역시 금정구 두구동 1641,금정체육공원경륜장북측입구,부산광역시 금정구 체육공원로399번길 324,1,,129.1070369,35.2891248,,,,,,
스카이빈,카페,커피 전문점,부산광역시 해운대구 좌동 1413,삼성,부산광역시 해운대구 세실로 174,,,129.1773336,35.17906794,,,,,,
아우리버,카페,커피 전문점,부산광역시 부산진구 범천동 845-94,,부산광역시 부산진구 골드테마길 36,,,129.060133,35.14333328,,,,,,
공차 하단아트몰링점,카페,기타 비알코올 음료점업,부산광역시 사하구 하단동 526-6,영진,부산광역시 사하구 낙동남로 1413,7,,128.9668772,35.10681746,,,,,,
스파이엔지,카페,커피 전문점,부산광역시 북구 구포동 885-2,,부산광역시 북구 낙동북로 720,,,129.0001871,35.19800278,,,,,,
루이스커피,카페,커피 전문점,부산광역시 사상구 감전동 157-2,,부산광역시 사상구 학감대로 238-22,1,,128.9913731,35.1517377,,,,,,
북카페,카페,커피 전문점,부산광역시 해운대구 반여동 1623,해운대인문학도서관,부산광역시 해운대구 반여로 132,1,,129.126308,35.20224214,,,,,,
초원,카페,커피 전문점,부산광역시 사상구 괘법동 523-13,사상신협본점,부산광역시 사상구 사상로 247-1,2,,128.9820966,35.16691247,,,,,,
카페 커피엔스타,카페,커피 전문점,부산광역시 금정구 장전동 302-9,,부산광역시 금정구 금정로60번길 24,3,,129.0874821,35.2295019,,,,,,연중무휴 스터디 카페
펫아쿠아카페 펫쿠 부산고양이카페,카페,커피 전문점,부산광역시 북구 덕천동 402-20,,부산광역시 북구 덕천1길 46,3,,129.0080584,35.21002918,,,,,,
마리스커피,카페,커피 전문점,부산광역시 서구 충무동1가 16-8,,부산광역시 서구 충무시장길 9,1,,129.0237753,35.09592263,,,,,,
카페파카스,카페,커피 전문점,부산광역시 남구 대연동 1463-8,,부산광역시 남구 진남로 52-1,,,129.0894807,35.13818961,,,,,,
다락재,카페,기타 비알코올 음료점업,부산광역시 북구 화명동 898-20,해창빌딩,부산광역시 북구 금곡대로 180,6,,129.0101486,35.22488171,,,,,,
하이오 자성공원로점,카페,커피 전문점,부산광역시 동구 범일동 584-1,,부산광역시 동구 부산진성공원로 21,1,,129.061837,35.13738364,,,,,,
커피하임,카페,커피 전문점,부산광역시 연제구 연산동 1328-10,,부산광역시 연제구 중앙대로 1036,1,,129.0778288,35.1808346,,,,,,
슬로우온,카페,커피 전문점,부산광역시 기장군 장안읍 월내리 495-3,,부산광역시 기장군 장안읍 해맞이로 342,1,,129.2748828,35.32483953,,,,,,
누에보디아,카페,커피 전문점,부산광역시 수영구 망미동 212-10,,부산광역시 수영구 좌수영로101번길 43,1,,129.1176289,35.17368376,,,,,,
진만두가,카페,커피 전문점,부산광역시 동래구 안락동 243-10,,부산광역시 동래구 온천천로453번길 24,1,,129.1032282,35.1923633,,,,,,
휴,카페,커피 전문점,부산광역시 해운대구 좌동 1394,두산동국,부산광역시 해운대구 양운로 182,,,129.1699374,35.17870511,,,,,,
컴포즈커피 정관파크점,카페,커피 전문점,부산광역시 기장군 정관읍 매학리 748-6,정관테라스,부산광역시 기장군 정관읍 정관로 595,1,,129.1790816,35.32073869,,,,,,
깔로르,카페,커피 전문점,부산광역시 기장군 장안읍 임랑리 1-54,,부산광역시 기장군 장안읍 임랑해안길 49-6,,,129.2638907,35.31903561,,,,,,
노씨커피,카페,커피 전문점,부산광역시 수영구 광안동 492-7,,부산광역시 수영구 광일로 11,3,,129.1128146,35.16195378,,,,,,
카페판다 범일점,카페,커피 전문점,부산광역시 부산진구 범천동 886-46,1~2층,부산광역시 부산진구 범일로 151-1,,,129.0590201,35.14357749,,,,,,
에그머니나,카페,기타 비알코올 음료점업,부산광역시 사상구 괘법동 547-14,,부산광역시 사상구 광장로86번길 6,1,,128.9862217,35.16144684,,,,,,
꿈을실현하는사람들 아몽즈,카페,커피 전문점,부산광역시 북구 구포동 1186-22,,부산광역시 북구 사상로 587,,,128.9904604,35.19666717,,,,,,
브라운로,카페,커피 전문점,부산광역시 해운대구 중동 1821,달맞이유림노르웨이숲,부산광역시 해운대구 달맞이길65번길 33,,,129.1736964,35.16118263,,,,,,
부전역커피숍,카페,기타 비알코올 음료점업,부산광역시 부산진구 부전동 573-3,부전시장,부산광역시 부산진구 중앙대로783번길 23,2,,129.0610208,35.16330596,,,,,,
휴카페,카페,커피 전문점,부산광역시 사하구 신평동 646-2,행정복지센터,부산광역시 사하구 하신중앙로 185,1,,128.9615486,35.09496309,,,,,,
한내행복마을협동조합,카페,커피 전문점,부산광역시 사상구 덕포동 427-1,,부산광역시 사상구 사상로277번길 22-10,,,128.9814886,35.17034689,,,,,,
나쓰커피,카페,커피 전문점,부산광역시 수영구 광안동 615-13,,부산광역시 수영구 수영로611번길 30,1,,129.1120037,35.16072434,,,,,,
블루샥 괴정점,카페,커피 전문점,부산광역시 사하구 괴정동 838-1,,부산광역시 사하구 낙동대로249번길 33-1,1,,128.9909405,35.09792637,,,,,,
더벤티낫개점,카페,커피 전문점,부산광역시 사하구 다대동 1575-2,,부산광역시 사하구 다송로72번길 64,1,,128.9808105,35.06036865,,,,,,
카페만디,카페,커피 전문점,부산광역시 사하구 괴정동 377-70,,부산광역시 사하구 오작로 104-7,2,,129.00475,35.1003482,,,,,,
현재의공간,카페,커피 전문점,부산광역시 부산진구 전포동 663-6,,부산광역시 부산진구 서전로37번길 14,2,,129.0639914,35.15839811,,,,,,
카노,카페,커피 전문점,부산광역시 사상구 모라동 75,모라주공3단지,부산광역시 사상구 모라로192번길 20-21,,,129.0006742,35.18339579,,,,,,
더블에이,카페,커피 전문점,부산광역시 서구 암남동 132-2,탐앤탐스커피,부산광역시 서구 송도해변로 139,,,129.021683,35.07734821,,,,,,
골목안작은봄날,카페,커피 전문점,부산광역시 중구 신창동1가 18-1,중간상가,부산광역시 중구 중구로34번길 20,1,,129.0299305,35.10094739,,,,,,
바이준,카페,커피 전문점,부산광역시 해운대구 재송동 1044-21,,부산광역시 해운대구 재반로103번가길 58,1,,129.1263447,35.19017518,,,,,,
백꼽,카페,커피 전문점,부산광역시 중구 신창동3가 33-4,,부산광역시 중구 광복로35번길 25-2,1,,129.0287078,35.1016077,,,,,,
카페아슬란 롯데광복점,카페,제과점업,부산광역시 중구 중앙동7가 20-1,아슬란코너롯데백화점,부산광역시 중구 중앙대로 2,4,,129.0367073,35.0983104,,,,,,
커피홀 부산금곡점,카페,커피 전문점,부산광역시 북구 금곡동 73-15,,부산광역시 북구 금곡대로616번길 71,1,,129.0164623,35.26386895,,,,,,
텐퍼센트커피서면서전로점,카페,커피 전문점,부산광역시 부산진구 부전동 142-11,,부산광역시 부산진구 서전로9번길 8,1,,129.0607811,35.15815539,,,,,,
몽쁘슈,카페,커피 전문점,부산광역시 동래구 사직동 855-2,후하우스,부산광역시 동래구 아시아드대로161번길 21,1,,129.0641958,35.19816276,,,,,,
드림커피,카페,커피 전문점,부산광역시 수영구 남천동 3-57,,부산광역시 수영구 남천동로108번길 27,1,,129.1125493,35.14660277,,,,,,
그릭하다,카페,피자; 햄버거; 샌드위치 및 유사 음식점업,부산광역시 부산진구 전포동 663-9,일부,부산광역시 부산진구 동천로108번길 41,1,,129.0644301,35.15839063,,,,,,
당감우체국카페,카페,커피 전문점,부산광역시 부산진구 당감동 252-60,당감동,부산광역시 부산진구 당감로10번길 13,2,,129.0405657,35.16286836,,,,,,
디저트39,카페,커피 전문점,부산광역시 부산진구 부암동 96-11,,부산광역시 부산진구 새싹로 83-2,1,,129.0532534,35.16425797,,,,,,
흰여울마을카페,카페,커피 전문점,부산광역시 영도구 영선동4가 606,흰여울문화마을안내센터아파트,부산광역시 영도구 절영로 194,4,,129.0435395,35.07989255,,,,,,
소프트,카페,커피 전문점,부산광역시 수영구 광안동 165-19,,부산광역시 수영구 수영로540번길 7,1,,129.1126742,35.15398104,,,,,,
류빈,카페,커피 전문점,부산광역시 금정구 남산동 677-6,,부산광역시 금정구 청룡로45번길 63,1,,129.0876216,35.27263729,,,,,,
텐퍼센트커피,카페,커피 전문점,부산광역시 사하구 괴정동 1284,사하역비스타동원,부산광역시 사하구 낙동대로 280,,,128.984261,35.10011765,,,,,,
커피스페이스바,카페,커피 전문점,부산광역시 남구 문현동 539-182,,부산광역시 남구 황령대로74번길 95,1,,129.0675415,35.14562216,,,,,,
엄스,카페,커피 전문점,부산광역시 수영구 망미동 213-50,,부산광역시 수영구 좌수영로 97,,,129.1202269,35.17314266,,,,,,
소풍,카페,커피 전문점,부산광역시 기장군 기장읍 내리 204-1,,부산광역시 기장군 기장읍 소정길 11,,,129.2059145,35.20100669,,,,,,
랏츠,카페,커피 전문점,부산광역시 영도구 영선동4가 1067,,부산광역시 영도구 흰여울길 289,,,129.0457411,35.07806207,,,,,,
뉴-젠,카페,커피 전문점,부산광역시 해운대구 우동 1422,수영로교회,부산광역시 해운대구 해운대해변로 47,1,,129.1397819,35.16384127,,,,,,
카페변호인,카페,커피 전문점,부산광역시 영도구 영선동4가 1091,,부산광역시 영도구 흰여울길 347,,,129.0463043,35.07734965,,,,,,
하삼동커피금사점,카페,커피 전문점,부산광역시 금정구 금사동 68-27,,부산광역시 금정구 금사로 80,1,,129.1115695,35.21985622,,,,,,
헬로우커피,카페,커피 전문점,부산광역시 사상구 삼락동 417-76,,부산광역시 사상구 사상로277번길 46,1,,128.9799354,35.17011096,,,,,,
커피스토어 안락점,카페,커피 전문점,부산광역시 동래구 안락동 633-1,,부산광역시 동래구 안연로 74,1,,129.0988108,35.19389983,,,,,,
차르콜,카페,커피 전문점,부산광역시 부산진구 전포동 194-35,,부산광역시 부산진구 서전로57번길 7,2,,129.0659815,35.15812086,,,,,,
컴포즈커피 해운대문화회관점 ,카페,커피 전문점,부산광역시 해운대구 좌동 998-7,일부호,부산광역시 해운대구 좌동로 89,1,,129.1746896,35.17251914,,,,,,
찐심버블밀크,카페,기타 비알코올 음료점업,부산광역시 사상구 덕포동 419-8,,부산광역시 사상구 사상로319번길 7,1,,128.9831713,35.17320311,,,,,,
앰퍼샌드커피,카페,기타 비알코올 음료점업,부산광역시 사상구 모라동 1362,우신모라아파트,부산광역시 사상구 백양대로 884,1,,128.9914515,35.18509786,,,,,,
카페드쁠랑뜨,카페,커피 전문점,부산광역시 해운대구 재송동 1146-39,재송플레이스,부산광역시 해운대구 재송2로28번길 18,,,129.1307965,35.19166489,,,,,,
라벨스하이디 명지국제신도시점2 ,카페,커피 전문점,부산광역시 강서구 명지동 3508-4,,부산광역시 강서구 명지국제5로136번길 28,1,,128.9239822,35.10565861,,,,,,
컴포즈 동아대병원점,카페,커피 전문점,부산광역시 서구 동대신동3가 68-2,리버스14차,부산광역시 서구 동대로 28-6,1,,129.0183516,35.11875877,,,,,,
텍스쳐,카페,기타 비알코올 음료점업,부산광역시 해운대구 우동 520-94,상가일부,부산광역시 해운대구 우동1로50번길 2,1,,129.1577887,35.16588273,,,,,,
할리스커피금강식물원점;디자인WK,카페,커피 전문점,부산광역시 금정구 장전동 521-68,,부산광역시 금정구 금샘로 22,,,129.0779966,35.22791694,,,,,,
카페디엠215,카페,커피 전문점,부산광역시 북구 화명동 1368,,부산광역시 북구 화명대로 69-17,1,,129.0166305,35.2347407,,,,,,
메가엠지씨커피 수영구청점,카페,커피 전문점,부산광역시 수영구 남천동 3-56,,부산광역시 수영구 광남로48번길 5,1,,129.1123348,35.14679576,,,,,,
뷰,카페,커피 전문점,부산광역시 금정구 구서동 246-26,,부산광역시 금정구 중앙대로1873번길 17,,,129.090247,35.25164938,,,,,,
잇츠몽몽,카페,커피 전문점,부산광역시 영도구 영선동2가 54,,부산광역시 영도구 절영로101번길 46,1,,129.0416036,35.08799068,,,,,,
커널커피&디자인,카페,커피 전문점,부산광역시 부산진구 전포동 680-5,전체동,부산광역시 부산진구 서전로38번길 39,,,129.0639612,35.1559024,,,,,,
동백커피 신세계키자니아점,카페,커피 전문점,부산광역시 해운대구 우동 1493,센텀시티몰,부산광역시 해운대구 센텀4로 15,6,,129.1282849,35.1698653,,,,,,
커피향기,카페,커피 전문점,부산광역시 부산진구 범천동 1254-56,,부산광역시 부산진구 신암로 82,,,129.0537854,35.14875794,,,,,,
까페동백,카페,커피 전문점,부산광역시 기장군 일광읍 동백리 158,,부산광역시 기장군 일광읍 문오성길 229,,,129.2568093,35.28853052,,,,,,
전람회의그림,카페,커피 전문점,부산광역시 금정구 장전동 418-1,,부산광역시 금정구 금강로 280,2,,129.0856582,35.23290364,,,11:00,24:00:00,,어쿠스틱 라이브 공연 존재
구디너프,카페,커피 전문점,부산광역시 강서구 대항동 93,,부산광역시 강서구 가덕해안로1169번길 28,,,128.8337376,35.01246604,,,,,,
온리비커피 부전역점,카페,커피 전문점,부산광역시 부산진구 전포동 876-4,전포동에메랄드홈,부산광역시 부산진구 중앙대로 786,,,129.0631167,35.16199963,,,,,,
레트로덕천,카페,커피 전문점,부산광역시 북구 구포동 624-3,,부산광역시 북구 백양대로 1167,1,,129.0043918,35.2064853,,,,,,
까페오에니,카페,커피 전문점,부산광역시 금정구 장전동 305-8,,부산광역시 금정구 금정로68번길 26-13,1,,129.0877169,35.2300926,,,,,,
가람커피숍,카페,기타 비알코올 음료점업,부산광역시 사하구 신평동 614-8,,부산광역시 사하구 하신번영로 165,2,,128.9600134,35.09724991,,,,,,
카투아이,카페,커피 전문점,부산광역시 해운대구 송정동 203-11,,부산광역시 해운대구 송정중앙로 35,1,,129.2042792,35.18233805,,,,,,
슈,카페,커피 전문점,부산광역시 해운대구 우동 1435,벽산이오렌지프라자,부산광역시 해운대구 마린시티3로 23,1,,129.146923,35.15664088,,,,,,
카페051 장전SK점,카페,커피 전문점,부산광역시 금정구 장전동 596-5,,부산광역시 금정구 금강로 175,1,,129.0816906,35.22420379,,,,,,
컴포즈 중동역점,카페,커피 전문점,부산광역시 해운대구 중동 1766-6,,부산광역시 해운대구 좌동순환로 506,1,,129.1687264,35.16617394,,,,,,
비앤이글로벌텐퍼센트커피 문현금융단지점,카페,기타 비알코올 음료점업,부산광역시 남구 문현동 1229-2,부산국제금융센터,부산광역시 남구 문현금융로 40,1,,129.0658629,35.14648889,,,,,,
그리구요거트,카페,기타 비알코올 음료점업,부산광역시 부산진구 전포동 349-35,,부산광역시 부산진구 전포대로186번길 33,1,,129.0673814,35.15316762,,,,,,
커피베이 연산점,카페,커피 전문점,부산광역시 연제구 연산동 587-1,웰메이드오피스텔,부산광역시 연제구 거제천로230번길 70,1,,129.0826283,35.1886913,,,,,,
소소린 서동점,카페,커피 전문점,부산광역시 금정구 서동 314-111,,부산광역시 금정구 서명로 12-1,,,129.1017675,35.21406128,,,,,,
마비스커피,카페,커피 전문점,부산광역시 북구 덕천동 384-1,,부산광역시 북구 만덕대로 42,2,,129.0096622,35.21094879,,,,,,
슈모어,카페,커피 전문점,부산광역시 북구 구포동 1229-1,흰간판,부산광역시 북구 시랑로109번길 46,1,,129.0090599,35.19809014,,,,,,
제곱컴퍼니,카페,커피 전문점,부산광역시 수영구 남천동 251,청운빌딩,부산광역시 수영구 수영로384번길 39,1,,129.1082085,35.13952324,,,,,,
카페051 서면중앙대로점,카페,커피 전문점,부산광역시 부산진구 부전동 255-42,,부산광역시 부산진구 중앙대로 701-4,1,,129.0588141,35.15543129,,,,,,
주아스커피,카페,커피 전문점,부산광역시 중구 신창동2가 17-3,,부산광역시 중구 광복로43번길 18,1,,129.0297191,35.10082476,,,,,,
카페로베,카페,커피 전문점,부산광역시 기장군 기장읍 대라리 130-2,,부산광역시 기장군 기장읍 차성동로31번길 35,1,,129.2144951,35.24043635,,,,,,
비지빈,카페,커피 전문점,부산광역시 남구 용호동 486-6,삼성,부산광역시 남구 용호로 182,,,129.1107276,35.11599524,,,,,,
하삼동커피 신평동매역점,카페,커피 전문점,부산광역시 사하구 신평동 84-97,,부산광역시 사하구 신산로 197,1,,128.9767647,35.08984046,,,,,,
키다리아저씨,카페,커피 전문점,부산광역시 사하구 하단동 511-6,,부산광역시 사하구 낙동남로1423번길 40,1,,128.966439,35.10820339,,,,,,
나비도꽃이었다,카페,커피 전문점,부산광역시 해운대구 반여동 1479,,부산광역시 해운대구 반여로 10,2,,129.1185595,35.19388923,,,,,,
하삼동커피 일광역동원비스타2차점,카페,커피 전문점,부산광역시 기장군 일광읍 이천리 944,일광신도시비스타동원2차,부산광역시 기장군 일광읍 해송1로 33,,,129.2300631,35.26864365,,,,,,
쉼표,카페,커피 전문점,부산광역시 금정구 장전동 111-13,,부산광역시 금정구 금정로 175,1,,129.0876706,35.24028537,,,,,,
커피153,카페,커피 전문점,부산광역시 해운대구 중동 153,서산농원,부산광역시 해운대구 대천로42번길 8,2,,129.1704082,35.1704062,,,,,,
신선마을주민협의회,카페,커피 전문점,부산광역시 부산진구 부암동 320-314,,부산광역시 부산진구 동평로131번길 94,,,129.0456642,35.16882915,,,,,,
날마다;빛나,카페,커피 전문점,부산광역시 동래구 온천동 1247-22,,부산광역시 동래구 아시아드대로231번길 20-3,1,,129.0663934,35.20517229,,,,,,
페이버릿로스팅랩,카페,커피 전문점,부산광역시 중구 보수동2가 65-13,,부산광역시 중구 보수대로118번길 23,1,,129.0224099,35.10545284,,,,,,
카페우,카페,커피 전문점,부산광역시 사하구 다대동 681-85,,부산광역시 사하구 다대동로 17-1,3,,128.9714591,35.05525809,,,,,,
카페멜로우,카페,커피 전문점,부산광역시 동구 범일동 570-39,,부산광역시 동구 부산진성공원로 23-3,1,,129.0619142,35.13740035,,,,,,
인야드,카페,커피 전문점,부산광역시 중구 남포동6가 113-1,하버타워,부산광역시 중구 구덕로 87-1,1,,129.0264072,35.09682489,,,,,,
프라우드에이,카페,커피 전문점,부산광역시 부산진구 전포동 686-1,더블루2,부산광역시 부산진구 서전로38번길 65,2,,129.0641517,35.15475468,,,,,,
오르막40,카페,커피 전문점,부산광역시 해운대구 반여동 1291-1456,목화빌라,부산광역시 해운대구 해운대로61번길 83-1,,,129.1277052,35.19519768,,,,,,
메가엠지씨커피 광안오션브릿지점,카페,커피 전문점,부산광역시 수영구 민락동 181-154,오션브릿지,부산광역시 수영구 광안해변로278번길 42,1,,129.1245132,35.15397219,,,,,,
폼카페,카페,커피 전문점,부산광역시 해운대구 중동 1496-7,반석비치빌라2차,부산광역시 해운대구 달맞이길117번나길 23,,,129.1806147,35.15849901,,,,,,
카페다대포여기,카페,커피 전문점,부산광역시 사하구 다대동 850-7,,부산광역시 사하구 다대동로 48,1,,128.9730743,35.05725049,,,,,,
아르테스,카페,커피 전문점,부산광역시 부산진구 범천동 868-17,,부산광역시 부산진구 신천대로65번길 30,1,,129.0579143,35.14889513,,,,,,
컬렉션,카페,커피 전문점,부산광역시 부산진구 전포동 673-10,,부산광역시 부산진구 서전로46번길 12,2,,129.0646738,35.15717892,,,,,,
별다방,카페,기타 비알코올 음료점업,부산광역시 사상구 괘법동 529-1,르네시떼,부산광역시 사상구 광장로 7,6,,128.9777212,35.16433455,,,,,,
빽다방 부산장림점,카페,커피 전문점,부산광역시 사하구 장림동 316-2,청룡타워,부산광역시 사하구 장림번영로103번길 5,1,,128.9763399,35.08087156,,,,,,
킹콩쥬스앤커피 청춘쌀핫도그,카페,기타 비알코올 음료점업,부산광역시 서구 암남동 산 193-22,송도해상케이블카상부정류장,부산광역시 서구 암남공원로 181,1,,129.0204117,35.06135542,,,,,,
제미니,카페,커피 전문점,부산광역시 사상구 주례동 43-28,,부산광역시 사상구 백양대로 324,,,129.0161385,35.15399545,,,,,,
커피한잔,카페,커피 전문점,부산광역시 중구 영주동 23-12,,부산광역시 중구 초량중로 2,1,,129.0360913,35.112334,,,,,,
이너가든,카페,커피 전문점,부산광역시 연제구 연산동 365-3,,부산광역시 연제구 과정로276번가길 32,1,,129.0961077,35.18995457,,,,,,
컵플,카페,커피 전문점,부산광역시 부산진구 전포동 347-41,,부산광역시 부산진구 전포대로186번길 17,1,,129.0665807,35.15318128,,,,,,
커피열매사하 구청점,카페,커피 전문점,부산광역시 사하구 당리동 317-16,,부산광역시 사하구 낙동대로398번길 12,,,128.9747829,35.10449901,,,,,,
고향,카페,기타 비알코올 음료점업,부산광역시 기장군 기장읍 청강리 60-5,은성,부산광역시 기장군 기장읍 차성남로 104,1,,129.2194157,35.24083278,,,,,,
카페파인,카페,커피 전문점,부산광역시 영도구 동삼동 486-4,,부산광역시 영도구 절영로 484,1,,129.0692266,35.07085061,,,,,,
일첼로부산중구지역자활센터,카페,커피 전문점,부산광역시 중구 대청동1가 49-1,,부산광역시 중구 대청로116번길 8,1,,129.0323301,35.10219585,,,,,,
마루그리고아토,카페,커피 전문점,부산광역시 강서구 대저1동 2387-2,,부산광역시 강서구 대저로273번길 21,,,128.9820912,35.21368342,,,,,,
버들로스터리,카페,커피 전문점,부산광역시 금정구 장전동 155-17,장성시장연립주택,부산광역시 금정구 수림로61번길 53,1,,129.0855985,35.23743744,월요일,1,8:00,17:00,,
프롬티,카페,기타 비알코올 음료점업,부산광역시 해운대구 중동 1310-14,,부산광역시 해운대구 좌동순환로8번길 22,,,129.1685277,35.16778153,,,,,,
다래헌,카페,기타 비알코올 음료점업,부산광역시 중구 중앙동1가 25-2,,부산광역시 중구 중앙대로29번길 8,2,,129.0356583,35.10022049,,,,,,
카페젤라또,카페,커피 전문점,부산광역시 서구 암남동 산 193-22,송도해상케이블카송도스카이파크,부산광역시 서구 암남공원로 181,,,129.0204117,35.06135542,,,,,,
오롯)웨스(WESS,카페,커피 전문점,부산광역시 기장군 장안읍 임랑리 141-1,,부산광역시 기장군 장안읍 임랑해안길 29,,,129.2630181,35.31731283,,,,,,
텐퍼센트 대티점,카페,커피 전문점,부산광역시 사하구 괴정동 386-11,,부산광역시 사하구 사리로 12,1,,128.9996,35.10094696,,,,,,
도서관앞에서,카페,커피 전문점,부산광역시 연제구 연산동 416-57,,부산광역시 연제구 고분로191번길 20,1,,129.1041002,35.18616626,,,,,,
띵스투두,카페,커피 전문점,부산광역시 수영구 수영동 458-4,,부산광역시 수영구 연수로379번길 27-4,1,,129.1123912,35.17103576,,,,,,
더벤티 수영역점,카페,커피 전문점,부산광역시 수영구 광안동 1077-13,신세계메디컬센터,부산광역시 수영구 수영로 669,1,,129.1144886,35.16557422,,,,,,
포스트까페,카페,커피 전문점,부산광역시 사하구 감천동 6-1073,,부산광역시 사하구 감내2로 122,,,129.0082805,35.09764929,,,,,,
커피스미스 구남로점,카페,커피 전문점,부산광역시 해운대구 중동 1392-166,해운대르와지르호텔,부산광역시 해운대구 구남로 37,,,129.1614928,35.16113073,,,,,,
동백커피 광안역점,카페,커피 전문점,부산광역시 수영구 광안동 742-2,협성엠파이어,부산광역시 수영구 장대골로 13,,,129.1120339,35.15892151,,,,,,
더리터 기장시장점,카페,커피 전문점,부산광역시 기장군 기장읍 대라리 56-8,,부산광역시 기장군 기장읍 차성로288번길 48,1,,129.2161324,35.24288444,,,,,,
오리진커피,카페,커피 전문점,부산광역시 기장군 정관읍 모전리 740-8,,부산광역시 기장군 정관읍 모전1길 6-27,2,,129.1662436,35.33489178,,,,,,
꽃달임,카페,기타 비알코올 음료점업,부산광역시 기장군 장안읍 좌천리 244-1,꽃달임,부산광역시 기장군 장안읍 해맞이로 8,2,,129.244831,35.31243461,,,,,,
꽁다리,카페,커피 전문점,부산광역시 남구 용호동 393-25,,부산광역시 남구 동명로 150-1,,,129.1133232,35.11924823,,,,,,
큐티카페,카페,커피 전문점,부산광역시 해운대구 우동 265-25,,부산광역시 해운대구 우동3로11번길 41-8,1,,129.1622349,35.1709219,,,,,,
심플커피숍,카페,커피 전문점,부산광역시 사상구 삼락동 69-4,,부산광역시 사상구 낙동대로1530번길 20-15,,,128.9860653,35.19335996,,,,,,
차랑재,카페,기타 비알코올 음료점업,부산광역시 연제구 연산동 585-13,,부산광역시 연제구 거제천로230번길 61,,,129.0828069,35.18923793,,,,,,
옛날팥빙수,카페,기타 비알코올 음료점업,부산광역시 동래구 사직동 69-7,,부산광역시 동래구 아시아드대로 161,,,129.0648503,35.19886351,,,,,,
설미,카페,커피 전문점,부산광역시 해운대구 우동 517-12,일부호,부산광역시 해운대구 우동1로38번길 12,2,,129.1583319,35.16526027,,,,,,
그루,카페,기타 비알코올 음료점업,부산광역시 서구 서대신동3가 187-4,,부산광역시 서구 꽃마을로 21,,,129.0129462,35.11615418,,,,,,
서프홀릭,카페,커피 전문점,부산광역시 해운대구 송정동 711-5,,부산광역시 해운대구 송정해변로 50,2,,129.2005243,35.17985616,,,,,,
진다방,카페,커피 전문점,부산광역시 사하구 괴정동 271-1,,부산광역시 사하구 낙동대로 175-1,1,,128.9971252,35.10153748,,,,,,
꿈,카페,커피 전문점,부산광역시 중구 중앙동4가 63-3,,부산광역시 중구 해관로 84-1,1,,129.0355818,35.10640383,,,,,,
미스줄리,카페,커피 전문점,부산광역시 금정구 장전동 116-4,,부산광역시 금정구 금강로 367,1,,129.0863113,35.24082247,,,,,,
카페노라,카페,기타 비알코올 음료점업,부산광역시 사하구 구평동 212-9,,부산광역시 사하구 감천항로 188,1,,128.9902495,35.07626423,,,,,,
써드,카페,커피 전문점,부산광역시 영도구 영선동1가 13-7,,부산광역시 영도구 태종로113번길 18,1,,129.0435371,35.09166193,,,,,,
코랄블루,카페,커피 전문점,부산광역시 남구 대연동 53-9,일부호,부산광역시 남구 용소로7번길 24,1,,129.1016968,35.1371492,,,,,,
파로드시랑,카페,커피 전문점,부산광역시 기장군 기장읍 시랑리 129,,부산광역시 기장군 기장읍 동암1길 27,,,129.2249091,35.196649,,,,,,
에이스커피,카페,커피 및 차류 도매업,부산광역시 금정구 청룡동 43-1,,부산광역시 금정구 남산냇길 132,,,129.0893101,35.27719494,,,,,,
이디야,카페,커피 전문점,부산광역시 서구 서대신동2가 120,희망센츄럴타운,부산광역시 서구 구덕로 293,1,,129.0173504,35.11017823,,,,,,
이디야커피 부산기장도서관점,카페,커피 전문점,부산광역시 기장군 기장읍 동부리 375-1,1~2층,부산광역시 기장군 기장읍 차성동로126번길 2,,,129.217075,35.24885962,,,,,,
해돋이카페,카페,커피 전문점,부산광역시 서구 서대신동1가 255-142,,부산광역시 서구 해돋이로 357-27,1,,129.0145526,35.10700757,,,,,,
더블비,카페,커피 전문점,부산광역시 남구 대연동 68-5,봉추찜닭,부산광역시 남구 용소로8번길 7,4,,129.0999857,35.13630476,,,,,,
미니니,카페,커피 전문점,부산광역시 연제구 연산동 2132-15,,부산광역시 연제구 배산북로 5,1,,129.092957,35.17496885,,,,,,
카페하리컨테이너,카페,커피 전문점,부산광역시 영도구 동삼동 1002,,부산광역시 영도구 태종로 803-11,,,129.0813741,35.06490222,,,,,,
파타야,카페,커피 전문점,부산광역시 남구 감만동 29-44,,부산광역시 남구 양지골로 341,1,,129.0859797,35.12179475,,,,,,
풀문하우스;디자인하다,카페,커피 전문점,부산광역시 기장군 정관읍 모전리 717,부산정관행복주택,부산광역시 기장군 정관읍 정관1로 51,,,129.1616483,35.34195774,,,,,,
나우커피 온천점,카페,커피 전문점,부산광역시 동래구 온천동 1678,삼윤빌딩,부산광역시 동래구 쇠미로129번길 100,1,,129.0582473,35.20650062,,,,,,
녹수원,카페,커피 전문점,부산광역시 금정구 노포동 16-6,,부산광역시 금정구 중앙대로 2350,,,129.1001973,35.29282131,,,,,,
크로하우스,카페,커피 전문점,부산광역시 사하구 하단동 870-94,대청가람채,부산광역시 사하구 하신중앙로313번길 68,,,128.9609319,35.10538179,,,,,,
엘스그라운드,카페,커피 전문점,부산광역시 연제구 거제동 89-69,,부산광역시 연제구 교대로 15,1,,129.0780441,35.19532147,,,,,,
이디야 부산다대포점,카페,커피 전문점,부산광역시 사하구 다대동 1552-12,,부산광역시 사하구 다대로 682,1,,128.9666645,35.04818047,,,,,,
빈티지앤플라워ZinC30,카페,커피 전문점,부산광역시 해운대구 중동 1124-2,팔레드시즈,부산광역시 해운대구 해운대해변로298번길 24,2,,129.1665817,35.16020173,,,,,,
아토에프앤비,카페,커피 전문점,부산광역시 해운대구 우동 1520,롯데갤러리움,부산광역시 해운대구 센텀1로 9,,,129.1309648,35.16784465,,,,,,
커피인,카페,커피 전문점,부산광역시 남구 대연동 323-6,대연동원,부산광역시 남구 수영로267번길 20,1,,129.0956666,35.13642461,,,,,,
컴포즈,카페,커피 전문점,부산광역시 사상구 덕포동 419-11,,부산광역시 사상구 사상로 309,1,,128.9831625,35.17239219,,,,,,
명가찻집,카페,기타 비알코올 음료점업,부산광역시 부산진구 부전동 403-26,,부산광역시 부산진구 새싹로29번길 16,,,129.0560604,35.16024522,,,,,,
수영애프앤비,카페,기타 비알코올 음료점업,부산광역시 해운대구 우동 1104-1,삼호가든맨션,부산광역시 해운대구 해운대로349번길 24,2,,129.1397322,35.17492623,,,,,,
다솔주 코리아,카페,커피 전문점,부산광역시 금정구 남산동 952-12,,부산광역시 금정구 금샘로 585,,,129.0848158,35.27463216,,,,,,
커스텀커피,카페,전자상거래 소매업,부산광역시 남구 감만동 500-2,판테라오피스텔,부산광역시 남구 무민사로 13,,,129.0802184,35.11175572,,,,,,
카페051 괘법한신점,카페,커피 전문점,부산광역시 사상구 삼락동 418-8,동양한신,부산광역시 사상구 운산로 21,1,,128.9792461,35.16929314,,,,,,
모마,카페,커피 전문점,부산광역시 남구 대연동 68-24,,부산광역시 남구 용소로14번길 8,2,,129.1001894,35.136121,,,,,,
브리타니,카페,커피 전문점,부산광역시 강서구 천성동 1454,,부산광역시 강서구 가덕해안로 663,,,128.8128432,35.03754566,,,,,,
컴포즈커피 두실점,카페,커피 전문점,부산광역시 금정구 구서동 816-11,,부산광역시 금정구 중앙대로1945번길 50,2,,129.0884007,35.25804335,,,,,,
수,카페,커피 전문점,부산광역시 해운대구 중동 1508-15,,부산광역시 해운대구 달맞이길65번길 126,,,129.1770741,35.15740025,,,,,,
보떼,카페,커피 전문점,부산광역시 동래구 사직동 749-7,,부산광역시 동래구 사직로 73,2,,129.0578784,35.19492703,,,,,,
플라워카페그런날,카페,커피 전문점,부산광역시 사하구 다대동 1548-45,,부산광역시 사하구 다대로 720,,,128.962944,35.04932218,,,,,,
메가엠지씨커피 당감점,카페,커피 전문점,부산광역시 부산진구 당감동 282-46,,부산광역시 부산진구 동평로 92,1,,129.0395956,35.16532686,,,,,,
수영성무예카페,카페,커피 전문점,부산광역시 수영구 수영동 49-2,부일그린빌라,부산광역시 수영구 수영로705번길 37-29,1,,129.1158319,35.16956088,,,,,,
팥당,카페,기타 비알코올 음료점업,부산광역시 기장군 일광읍 삼성리 33-28,,부산광역시 기장군 일광읍 삼성3길 59,2,,129.2340411,35.26626337,,,,,,
번아웃커피 부산대역점,카페,커피 전문점,부산광역시 금정구 장전동 414-2,,부산광역시 금정구 장전온천천로 67,1,,129.0888256,35.23092956,,,,,,
카페051 수영점,카페,커피 전문점,부산광역시 수영구 수영동 450-10,,부산광역시 수영구 연수로 409,1,,129.1140894,35.16838377,,,,,,
다다,카페,기타 비알코올 음료점업,부산광역시 해운대구 중동 1491-15,일부,부산광역시 해운대구 달맞이길117번가길 120-35,,,129.1817589,35.15779354,,,,,,
호림다방,카페,기타 비알코올 음료점업,부산광역시 사상구 덕포동 422-4,,부산광역시 사상구 사상로293번길 31,,,128.9811934,35.17129796,,,,,,
컴포즈커피 대티역점,카페,커피 전문점,부산광역시 사하구 괴정동 310-8,,부산광역시 사하구 사리로 44,1,,128.9988906,35.10377935,,,,,,
골드빈,카페,커피 전문점,부산광역시 금정구 부곡동 277-20,,부산광역시 금정구 동부곡로27번길 65,,,129.0950006,35.22847081,,,,,,
요거당,카페,커피 전문점,부산광역시 사상구 모라동 1375,부산벤처타워,부산광역시 사상구 모라로 22,,,128.9847212,35.19090379,,,,,,
달콤커피부산송도 케이블카점,카페,커피 전문점,부산광역시 서구 암남동 765,송도해상케이블카하부정류장,부산광역시 서구 송도해변로 171,1,,129.0234086,35.07664354,,,,,,
로드377,카페,커피 전문점,부산광역시 사상구 주례동 58-1,,부산광역시 사상구 가야대로 377,,,129.0139769,35.15176947,,,,,,
부산영도지역자활센터 카페마렌 해돋이점,카페,커피 전문점,부산광역시 영도구 청학동 420-3,영도구복합커뮤니티센터,부산광역시 영도구 봉래길 372,3,,129.0565703,35.09109904,,,,,,
낙원다방,카페,기타 비알코올 음료점업,부산광역시 북구 구포동 589-10,,부산광역시 북구 낙동대로1762번가길 43,,,129.0029624,35.20774356,,,,,,
플랫,카페,커피 전문점,부산광역시 기장군 일광읍 문중리 111,1~3층,부산광역시 기장군 일광읍 문오성길 651,,,129.2580713,35.3042853,,,,,,
블루샥 센텀스타점,카페,커피 전문점,부산광역시 해운대구 재송동 1196,더샵센텀스타,부산광역시 해운대구 센텀동로 123,1,,129.1250019,35.17739347,,,,,,
컴포즈커피 마린시티제니스점,카페,커피 전문점,부산광역시 해운대구 우동 1407,해운대두산위브더제니스,부산광역시 해운대구 마린시티2로 33,,,129.14482,35.15720081,,,,,,
커피산방,카페,커피 전문점,부산광역시 사하구 다대동 1573,에스엔씨빌딩,부산광역시 사하구 다송로72번길 82,,,128.9798223,35.06029467,,,,,,
더리터 동삼점,카페,커피 전문점,부산광역시 영도구 동삼동 231-1,봉황주택,부산광역시 영도구 동삼로 90,2,,129.0709238,35.0811851,,,,,,
지미지니팍 온천천점,카페,커피 전문점,부산광역시 동래구 안락동 633-100,1~2층,부산광역시 동래구 온천천로 431,,,129.100104,35.19211114,,,,,,
천림커피숍,카페,기타 비알코올 음료점업,부산광역시 사상구 감전동 122-78,,부산광역시 사상구 새벽로 175,2,,128.9832981,35.15673655,,,,,,
설빙 대연점,카페,기타 비알코올 음료점업,부산광역시 남구 대연동 1740-6,,부산광역시 남구 유엔평화로 3,2,,129.0921984,35.1346462,,,,,,
브로,카페,커피 전문점,부산광역시 부산진구 양정동 394-5,,부산광역시 부산진구 중앙대로 901,2,,129.0690821,35.17092747,,,,,,
노스텔직네이처고포레스트,카페,커피 전문점,부산광역시 부산진구 전포동 667-20,로얄캐슬,부산광역시 부산진구 동천로108번길 18,1,,129.0633694,35.15810231,,,,,,
카페재재,카페,커피 전문점,부산광역시 부산진구 부암동 689-1,,부산광역시 부산진구 신천대로 192,1,,129.0507179,35.15899308,,,,,,
로스팅스페이스,카페,커피 전문점,부산광역시 수영구 망미동 441-25,,부산광역시 수영구 망미배산로24번길 22,1,,129.1056289,35.17521773,,,,,,
더리터 남천점,카페,커피 전문점,부산광역시 수영구 남천동 30-17,도원빌딩,부산광역시 수영구 수영로 466,1,,129.1105624,35.1474124,,,,,,
하마정,카페,커피 전문점,부산광역시 부산진구 양정동 315-7,,부산광역시 부산진구 거제대로74번길 16,1,,129.068579,35.17575727,,,,,,
떼조로,카페,커피 전문점,부산광역시 수영구 수영동 476-4,,부산광역시 수영구 수미로42번길 2,1,,129.115166,35.17351053,,,,,,
싱싱커피,카페,커피 전문점,부산광역시 서구 충무동1가 1-38,,부산광역시 서구 해안새벽시장길 5,,,129.025641,35.0959906,,,,,,
볕들경시루단,카페,기타 비알코올 음료점업,부산광역시 금정구 부곡동 767-94,,부산광역시 금정구 서동로 52,1,,129.0929444,35.2185397,,,,,,
디에스더블류,카페,커피 전문점,부산광역시 해운대구 재송동 1126-2,,부산광역시 해운대구 재반로 112,,,129.1265667,35.18816172,,,,,,
커피생활,카페,커피 전문점,부산광역시 서구 동대신동3가 331-1,,부산광역시 서구 대영로73번길 91,,,129.0170042,35.11437446,,,,,,
카페클라츠,카페,커피 전문점,부산광역시 영도구 봉래동3가 7-8,,부산광역시 영도구 절영로13번길 61,,,129.0434139,35.09199744,,,,,,
백년안약차실,카페,기타 비알코올 음료점업,부산광역시 중구 중앙동4가 85-13,태림빌딩,부산광역시 중구 충장대로9번길 14,1,,129.0376149,35.10657693,,,,,,
카페051 명지포스코점,카페,커피 전문점,부산광역시 강서구 명지동 3594,더샵명지퍼스트월드2단지,부산광역시 강서구 명지국제7로 37,1,,128.9053363,35.09751798,,,,,,
카페051 센텀파크점,카페,커피 전문점,부산광역시 해운대구 재송동 1200,더샵센텀파크1차,부산광역시 해운대구 센텀중앙로 145,,,129.1235916,35.17676038,,,,,,
커피랑떡이랑,카페,커피 전문점,부산광역시 남구 문현동 351-22,,부산광역시 남구 지게골로 46,1,,129.0703578,35.1355261,,,,,,
베터커피베터라이프,카페,커피 전문점,부산광역시 수영구 남천동 3-5,협진태양,부산광역시 수영구 남천동로108번길 49,2,,129.1135647,35.14683738,,,,,,
하삼동커피 낙민점,카페,커피 전문점,부산광역시 동래구 낙민동 326,동래꿈에그린아파트,부산광역시 동래구 온천천로339번길 51,1,,129.0907674,35.19659829,,,,,,
어벤더치,카페,커피 전문점,부산광역시 부산진구 부전동 160-8,,부산광역시 부산진구 서전로10번길 36,1,,129.0597266,35.15637101,,,,,,
심리상담센터WITH&히즈빈스부산 정관점,카페,커피 전문점,부산광역시 기장군 정관읍 용수리 526,1~2층,부산광역시 기장군 정관읍 산막길 26-98,,,129.1725085,35.33313026,,,,,,
원두casa까사,카페,커피 전문점,부산광역시 기장군 일광읍 동백리 305-4,1~2층,부산광역시 기장군 일광읍 일광로 467,,,129.2564943,35.28431021,,,,,,
두달팽이,카페,커피 전문점,부산광역시 영도구 청학동 475-8,세양쉬에당아파트,부산광역시 영도구 와치로 64,,,129.0596983,35.08773863,,,,,,
커피스토어 홈플러스광안점,카페,커피 전문점,부산광역시 수영구 광안동 491-1,홈플러스슈퍼익스프레스광안점,부산광역시 수영구 수영로 625,1,,129.1135199,35.16164409,,,,,,
카페그안,카페,커피 전문점,부산광역시 부산진구 전포동 638-15,,부산광역시 부산진구 서전로47번길 42,2,,129.0649343,35.15967069,,,,,,
카페쏭즈,카페,커피 전문점,부산광역시 연제구 거제동 584-1,,부산광역시 연제구 거제시장로 42,1,,129.0708842,35.18312537,,,,,,
카페젤라떼리아,카페,커피 전문점,부산광역시 해운대구 우동 643-1,한양수자인마린오피스텔,부산광역시 해운대구 해운대로570번길 17,1,,129.156009,35.16082297,,,,,,
제이스커피,카페,커피 전문점,부산광역시 사상구 괘법동 559-7,,부산광역시 사상구 광장로 62,,,128.9832537,35.16168473,,,,,,
펠어커피 안락점,카페,커피 전문점,부산광역시 동래구 안락동 462-10,,부산광역시 동래구 충렬대로457번길 28,,,129.109081,35.19667709,,,,,,
나우커피 주례점,카페,커피 전문점,부산광역시 사상구 주례동 315-1,,부산광역시 사상구 양지로30번길 4,,,129.0036537,35.15407647,,,,,,
오렌지커피점,카페,커피 전문점,부산광역시 연제구 연산동 728-2,,부산광역시 연제구 반송로 14,,,129.0828541,35.18678598,,,,,,
그라찌에 대동대점,카페,커피 전문점,부산광역시 금정구 부곡동 373-4,대동대학교,부산광역시 금정구 동부곡로27번길 88,2,,129.0958633,35.22913173,,,,,,
하삼동커피 사직롯데캐슬점,카페,커피 전문점,부산광역시 동래구 사직동 1041,사직롯데캐슬더클래식,부산광역시 동래구 아시아드대로146번길 1,,,129.0666489,35.19792264,,,,,,
공차 명지국제신도시점,카페,커피 전문점,부산광역시 강서구 명지동 3357-7,명지뉴타워,부산광역시 강서구 명지국제8로 245,,,128.9198315,35.09841574,,,,,,
아이리,카페,커피 전문점,부산광역시 금정구 금성동 332,,부산광역시 금정구 땅곡길 94-1,,,129.0514573,35.25385441,,,,,,
감스,카페,커피 전문점,부산광역시 기장군 정관읍 용수리 1283-5,,부산광역시 기장군 정관읍 가동3로 10-2,1,,129.1796954,35.3284502,,,,,,
동아문화재단재,카페,기타 비알코올 음료점업,부산광역시 서구 동대신동3가 552,동아대학교,부산광역시 서구 대신공원로 26,1,,129.0187568,35.12050931,,,,,,
디저트39 해운대점,카페,커피 전문점,부산광역시 해운대구 중동 1262-1,,부산광역시 해운대구 해운대해변로357번길 17,1,,129.1677212,35.16468704,,,,,,
원,카페,커피 전문점,부산광역시 수영구 광안동 382-3,1~2층,부산광역시 수영구 호암로29번길 69,1,,129.1103062,35.15363483,,,,,,
에스케이,카페,커피 전문점,부산광역시 기장군 정관읍 달산리 934-16,,부산광역시 기장군 정관읍 곰내길 654-77,,,129.1749816,35.31298182,,,,,,
헤이,카페,커피 전문점,부산광역시 사하구 하단동 505-17,제이윤,부산광역시 사하구 낙동대로 505,2,,128.9660819,35.10931764,,,,,,
엠스타카페,카페,커피 전문점,부산광역시 중구 중앙동7가 20-1,롯데백화점,부산광역시 중구 중앙대로 2,5,,129.0367073,35.0983104,,,,,,
킹프레소 대연점,카페,커피 전문점,부산광역시 남구 대연동 1738-5,,부산광역시 남구 유엔평화로 11,1,,129.0921363,35.13393536,,,,,,
와커피 장전래미안점,카페,커피 전문점,부산광역시 금정구 장전동 608-1,,부산광역시 금정구 금정로 17,1,,129.0855747,35.22620955,,,,,,
댄싱컵 화명수정점,카페,커피 전문점,부산광역시 북구 화명동 2337,화명동원로얄듀크비스타2차,부산광역시 북구 금곡대로 175,,,129.009479,35.22489283,,,,,,
카페잠시;멈춤() 거제점,카페,커피 전문점,부산광역시 연제구 거제동 1462-30,,부산광역시 연제구 거제천로269번길 36,1,,129.0866259,35.19348869,,,,,,
와커피 사상경찰서점,카페,커피 전문점,부산광역시 사상구 감전동 136-14,,부산광역시 사상구 학감대로260번길 7,1,,128.9910821,35.15420269,,,,,,
춘,카페,커피 전문점,부산광역시 영도구 대교동2가 143-3,,부산광역시 영도구 절영로29번길 7,1,,129.0398965,35.09164215,,,,,,
로빈,카페,커피 전문점,부산광역시 강서구 신호동 262-9,,부산광역시 강서구 신호산단1로140번길 71,1,,128.8807884,35.08095875,,,,,,
밀로커피,카페,커피 전문점,부산광역시 강서구 화전동 558,우방아이유쉘,부산광역시 강서구 화전산단4로 74,,,128.8855961,35.11073189,,,,,,
여여해,카페,기타 비알코올 음료점업,부산광역시 중구 광복동1가 45,하모니빌딩,부산광역시 중구 광복로 88,1,,129.0345492,35.09839171,,,,,,
위카페,카페,커피 전문점,부산광역시 동래구 사직동 93-6,의일부내,부산광역시 동래구 사직북로 4,9,,129.0613593,35.1962646,,,,,,
멜로디,카페,커피 전문점,부산광역시 기장군 일광읍 이천리 839-8,,부산광역시 기장군 일광읍 일광로 126,,,129.2352291,35.26631351,,,,,,
회화나무까페,카페,커피 전문점,부산광역시 사하구 괴정동 531-13,,부산광역시 사하구 낙동대로249번길 48,1,,128.990782,35.09727111,,,,,,
마음담아수련청,카페,기타 비알코올 음료점업,부산광역시 강서구 지사동 1198-11,,부산광역시 강서구 과학산단2로10번길 8,1,,128.8314315,35.14952142,,,,,,
카페밀,카페,커피 전문점,부산광역시 강서구 화전동 560-7,,부산광역시 강서구 화전산단6로 149,1,,128.8827606,35.11046957,,,,,,
익선재,카페,기타 비알코올 음료점업,부산광역시 해운대구 중동 1477-2,보현빌라,부산광역시 해운대구 달맞이길117번나길 155,,,129.1847286,35.16339013,,,,,,
원다방,카페,기타 비알코올 음료점업,부산광역시 사하구 당리동 324-21,,부산광역시 사하구 다대로 2,,,128.9767084,35.10204343,,,,,,
해신,카페,커피 전문점,부산광역시 강서구 녹산동 11-15,,부산광역시 강서구 생곡로 22-6,,,128.896266,35.12346154,,,,,,
스몰굿커피 온천장점,카페,커피 전문점,부산광역시 동래구 온천동 1850,동래SKVIEW근린생활시설동3차,부산광역시 동래구 온천장로65번길 9,,,129.0816029,35.21732953,,,,,,
이디야커피 부산지사점,카페,커피 전문점,부산광역시 강서구 지사동 1182-2,명진파크뷰,부산광역시 강서구 과학산단2로20번길 11,,,128.8318569,35.1508758,,,,,,
복고다방 범방점,카페,커피 전문점,부산광역시 강서구 범방동 1867-2,일부,부산광역시 강서구 범방3로71번길 11,1,,128.8802743,35.14972834,,,,,,
매화당139,카페,커피 전문점,부산광역시 강서구 미음동 1655-4,,부산광역시 강서구 미음국제2로가길 29,,,128.8755406,35.14474602,,,,,,
카페051 민락현대점,카페,커피 전문점,부산광역시 수영구 수영동 503-15,,부산광역시 수영구 수영로741번길 9,1,,129.1206293,35.16877406,,,,,,
공차 롯데월드어드벤처부산점,카페,커피 전문점,부산광역시 기장군 기장읍 시랑리 산 46,,부산광역시 기장군 기장읍 동부산관광로 8,,,129.2149583,35.19283051,,,,,,
하삼동커피 녹산공단점,카페,커피 전문점,부산광역시 강서구 송정동 1715-5,TOOLMART,부산광역시 강서구 녹산산단232로 38-3,,,128.8424932,35.08530487,,,,,,
순수한커피이야기,카페,커피 전문점,부산광역시 동래구 복천동 380-10,,부산광역시 동래구 충렬대로237번길 92,1,,129.0840852,35.20532854,,,,,,
복고다방 영도남항점,카페,커피 전문점,부산광역시 영도구 남항동1가 48-3,,부산광역시 영도구 절영로42번길 12,,,129.0382136,35.09098556,,,,,,
카페일광,카페,커피 전문점,부산광역시 기장군 일광읍 삼성리 40-2,,부산광역시 기장군 일광읍 삼성3길 19,,,129.2341511,35.26346789,,,,,,
하삼동커피 동삼점,카페,커피 전문점,부산광역시 영도구 동삼동 322-85,,부산광역시 영도구 동삼로 63,1,,129.0701753,35.0788999,,,,,,
로쏘커피,카페,커피 전문점,부산광역시 부산진구 부전동 475-5,,부산광역시 부산진구 서면문화로 11-2,1,,129.057172,35.15863129,,,,,,
제이플렉스,카페,커피 전문점,부산광역시 연제구 연산동 1505-47,,부산광역시 연제구 시청로 32,3,,129.073915,35.18188396,,,,,,
홀릭,카페,커피 전문점,부산광역시 남구 대연동 536-6,,부산광역시 남구 용소로 58,,,129.1010086,35.1321417,,,,,,
듀플릿,카페,커피 전문점,부산광역시 해운대구 우동 533-3,,부산광역시 해운대구 우동1로20번길 27-13,1,,129.1576152,35.16429981,,,,,,
컴포즈커피 해운대보건소점,카페,커피 전문점,부산광역시 해운대구 중동 1793,해운대래미안,부산광역시 해운대구 좌동순환로 402,,,129.1766463,35.16399526,,,,,,
폴커피바,카페,커피 전문점,부산광역시 동래구 안락동 221-4,,부산광역시 동래구 온천천로471번길 7,1,,129.1045674,35.19151096,,,,,,
부산가톨릭대학교협동조합,카페,커피 전문점,부산광역시 금정구 부곡동 9,부산가톨릭대학교,부산광역시 금정구 오륜대로 57,,,129.0968785,35.24467691,,,,,,
녹록,카페,커피 전문점,부산광역시 수영구 광안동 144-9,,부산광역시 수영구 광안로21번길 9,,,129.1150551,35.15694032,,,,,,
비엔아이물류,카페,커피 전문점,부산광역시 강서구 성북동 1501,부산신항홍보관,부산광역시 강서구 신항로 96-87,6,,128.830585,35.08621527,,,,,,
프라미스,카페,커피 전문점,부산광역시 영도구 동삼동 571-10,,부산광역시 영도구 절영로 473,,,129.0681773,35.07053508,,,,,,
토미집,카페,커피 전문점,부산광역시 연제구 연산동 585-3,,부산광역시 연제구 중앙대로1150번길 50,,,129.0833998,35.1905344,,,,,,
탐앤탐스 광안리오션브릿지점,카페,커피 전문점,부산광역시 수영구 민락동 181-154,민락동오션브릿지상가,부산광역시 수영구 광안해변로278번길 42,1,,129.1245132,35.15397219,,,,,,
텐퍼센트커피 부암화승점,카페,커피 전문점,부산광역시 부산진구 부암동 538-5,,부산광역시 부산진구 당감로 98,1,,129.0382823,35.17030538,,,,,,
이디야 연지래미안점,카페,커피 전문점,부산광역시 부산진구 연지동 70-2,,부산광역시 부산진구 성지로 30-1,1,,129.0551094,35.1734724,,,,,,
텐퍼센트커피 동아대병원점,카페,커피 전문점,부산광역시 서구 동대신동3가 553,브라운스톤하이포레,부산광역시 서구 동대로19번길 32,1,,129.0192216,35.1184559,,,,,,
시랑로커피,카페,커피 전문점,부산광역시 북구 구포동 1259-32,,부산광역시 북구 시랑로94번길 57-3,1,,129.0069515,35.194944,,,,,,
드림유커피,카페,커피 전문점,부산광역시 사상구 주례동 193-5,,부산광역시 사상구 가야대로 326,1,,129.007672,35.15015291,,,,,,
카페더브,카페,기타 비알코올 음료점업,부산광역시 금정구 장전동 400-29,,부산광역시 금정구 금강로 255-6,1,,129.0846663,35.23105536,월요일,1,11:00,21:00,,
매머드익스프레스 부산중앙역점,카페,커피 전문점,부산광역시 중구 중앙동4가 24-3,,부산광역시 중구 충장대로4번길 6,1,,129.0368097,35.10462591,,,,,,
씨든에프앤비,카페,커피 전문점,부산광역시 남구 대연동 568-9,,부산광역시 남구 유엔로 202,,,129.098349,35.12980874,,,,,,
크샤나,카페,커피 전문점,부산광역시 기장군 일광읍 삼성리 648-3,,부산광역시 기장군 일광읍 물방길 98,1,,129.2114602,35.26416429,,,,,,
하삼동커피 송정비치점,카페,커피 전문점,부산광역시 해운대구 송정동 291-24,,부산광역시 해운대구 송정해변로 24,1,,129.2034828,35.18089272,,,,,,
토곡팥빙수,카페,기타 비알코올 음료점업,부산광역시 연제구 연산동 57-36,,부산광역시 연제구 토곡남로 7,1,,129.1064643,35.18122289,,,,,,
바모노스,카페,커피 전문점,부산광역시 중구 신창동1가 30-1,,부산광역시 중구 광복로49번길 33,2,,129.0302235,35.10215005,,,,,,
플루크 1호점,카페,커피 전문점,부산광역시 강서구 명지동 3420-5,삼성프라자,부산광역시 강서구 명지국제8로 264,,,128.9214674,35.09756973,,,,,,
해피테라스,카페,커피 전문점,부산광역시 부산진구 개금동 218-10,,부산광역시 부산진구 백양대로 258-1,,,129.0227841,35.15605645,,,,,,
나우커피 대연점,카페,커피 전문점,부산광역시 남구 대연동 295-2,포레2차,부산광역시 남구 진남로29번길 2,1,,129.0913258,35.13784236,,,,,,
윰테이블,카페,커피 전문점,부산광역시 금정구 부곡동 889-53,,부산광역시 금정구 부곡로 6,,,129.0867125,35.21746682,,,,,,
커피베이 동대신점,카페,커피 전문점,부산광역시 서구 동대신동3가 385-3,,부산광역시 서구 보수대로 221-1,1,,129.019154,35.11438372,,,,,,
아티자나,카페,기타 비알코올 음료점업,부산광역시 수영구 남천동 19-22,,부산광역시 수영구 남천동로10번길 30,1,,129.1087304,35.1418932,,,,,,
커피베이 부산오시리아점,카페,비주거용 건물 임대업,부산광역시 기장군 기장읍 시랑리 717,스타테라스,부산광역시 기장군 기장읍 기장해안로 172,1,,129.2177682,35.1920131,,,,,,
커피명인-히토,카페,커피 전문점,부산광역시 해운대구 우동 496-8,,부산광역시 해운대구 우동1로 21,2,,129.1562935,35.16370157,,,,,,
디아트커피,카페,커피 전문점,부산광역시 해운대구 중동 586,,부산광역시 해운대구 청사포로128번길 12,,,129.1918668,35.16072894,,,,,,
신한,카페,커피 전문점,부산광역시 중구 남포동5가 87-2,,부산광역시 중구 자갈치로 41,,,129.0288402,35.09721675,,,,,,
새한,카페,커피 전문점,부산광역시 연제구 거제동 616-13,,부산광역시 연제구 거제시장로 43,1,,129.0705242,35.18278008,,,,,,
바슬,카페,커피 전문점,부산광역시 금정구 부곡동 295-30,,부산광역시 금정구 동부곡로5번길 3,,,129.0923883,35.22596576,,,,,,
하삼동커피 허심청점,카페,커피 전문점,부산광역시 동래구 온천동 182-4,,부산광역시 동래구 온천장로 81-1,1,,129.0822731,35.21863368,,,,,,
텐퍼센트 용호현대비치점,카페,커피 전문점,부산광역시 남구 용호동 181-1,현대비치,부산광역시 남구 용호로42번길 14,1,,129.1084327,35.12694821,,,,,,
나무,카페,커피 전문점,부산광역시 중구 부평동1가 4-3,,부산광역시 중구 중구로53번길 8-2,,,129.0271121,35.1027068,,,,,,
투썸플레이스 남산점,카페,커피 전문점,부산광역시 금정구 남산동 962-14,,부산광역시 금정구 금샘로 562,4,,129.0853588,35.27266732,,,,,,
베리베리,카페,커피 전문점,부산광역시 해운대구 반여동 1116-4,일부호,부산광역시 해운대구 삼어로133번길 38,1,,129.1178639,35.20895053,,,,,,
메종드다월,카페,커피 전문점,부산광역시 금정구 부곡동 223-30,,부산광역시 금정구 중앙대로1719번길 20-14,,,129.0911402,35.23852229,,,,,,
텐퍼센트커피 대연혁신점,카페,커피 전문점,부산광역시 남구 대연동 1858,대연힐스테이트푸르지오,부산광역시 남구 수영로 345,,,129.1035224,35.13988407,,,,,,
매머드익스프레스 해운대NC점,카페,커피 전문점,부산광역시 해운대구 좌동 1467-4,지팝건축물,부산광역시 해운대구 해운대로 813,1,,129.177051,35.17053024,,,,,,
카페디아떼 부산기장점,카페,커피 전문점,부산광역시 기장군 기장읍 대라리 76-2,,부산광역시 기장군 기장읍 차성남로65번길 15,1,,129.2153385,35.24277283,,,,,,
소풍,카페,커피 전문점,부산광역시 금정구 청룡동 282,,부산광역시 금정구 청룡예전로99번길 24,1,,129.0855154,35.27791828,,,,,,
메가엠지씨커피 연산점,카페,커피 전문점,부산광역시 연제구 연산동 719-18,,부산광역시 연제구 월드컵대로 75,1,,129.0836845,35.18104936,,,,,,
자이콥21 서면롯백점,카페,커피 전문점,부산광역시 부산진구 부전동 515-1,,부산광역시 부산진구 부전로66번길 12,,,129.0553664,35.15577823,,,,,,
오노,카페,커피 전문점,부산광역시 금정구 남산동 17-11,,부산광역시 금정구 금강로 730,1,,129.0892266,35.27266364,,,,,,
베이크굼,카페,커피 전문점,부산광역시 금정구 장전동 298-17,,부산광역시 금정구 장전로 20,1,,129.0867561,35.22817171,,,10:00,21:00,,
아라하,카페,기타 비알코올 음료점업,부산광역시 강서구 명지동 3461-6,,부산광역시 강서구 명지국제6로220번길 15,,,128.9236988,35.09500197,,,,,,
투썸플레이스,카페,커피 전문점,부산광역시 연제구 거제동 1495-1,,부산광역시 연제구 법원남로15번길 17,,,129.0737275,35.19005165,,,,,,
메가커피 하단SK뷰점,카페,커피 전문점,부산광역시 사하구 하단동 1158,,부산광역시 사하구 하신번영로 395,1,,128.9603576,35.11619631,,,,,,
어랏투고,카페,커피 전문점,부산광역시 강서구 명지동 3231,영어도시퀸덤1차,부산광역시 강서구 명지오션시티10로 16,1,,128.8967889,35.08639604,,,,,,
와이에이치파트너스,카페,커피 전문점,부산광역시 연제구 연산동 1287-5,오오빌딩,부산광역시 연제구 중앙대로 1085,12,,129.080303,35.18489236,,,,,,
리틀어랏,카페,커피 전문점,부산광역시 해운대구 우동 457-10,일부호,부산광역시 해운대구 우동1로50번길 5,1,,129.1578183,35.16617057,,,,,,
굿투씨유,카페,커피 전문점,부산광역시 사상구 주례동 80-79,,부산광역시 사상구 가야대로366번길 77,1,,129.0130827,35.14753981,,,,,,
리움카페온유,카페,커피 전문점,부산광역시 강서구 명지동 3442-1,,부산광역시 강서구 명지국제6로 240,,,128.9231531,35.09697524,,,,,,
춘,카페,커피 전문점,부산광역시 남구 문현동 749-8,,부산광역시 남구 문현금융로 18-2,,,129.065052,35.14435795,,,,,,
힐링빈즈,카페,기타 비알코올 음료점업,부산광역시 기장군 기장읍 대라리 931,대원그린빌,부산광역시 기장군 기장읍 차성서로101번길 12-8,,,129.2091488,35.24296713,,,,,,
감실집,카페,커피 전문점,부산광역시 중구 남포동6가 18,,부산광역시 중구 자갈치로 26,1,,129.0273467,35.09624144,,,,,,
메이플커피,카페,자동 판매기 운영업,부산광역시 금정구 부곡동 268-2,부곡동푸르지오,부산광역시 금정구 중앙대로 1617-12,,,129.0905854,35.2297457,,,,,,
쭈야,카페,커피 전문점,부산광역시 부산진구 가야동 486,,부산광역시 부산진구 엄광로 133,,,129.0295315,35.14762578,,,,,,
카페봄봄 장전점,카페,커피 전문점,부산광역시 금정구 장전동 211-5,,부산광역시 금정구 금정로 151,,,129.0876582,35.23808679,,,,,,
라뽀아르,카페,커피 전문점,부산광역시 금정구 구서동 460-21,,부산광역시 금정구 수림로72번길 120,1,,129.0870479,35.24470272,,,,,,
이솝,카페,커피 전문점,부산광역시 부산진구 부암동 384-15,,부산광역시 부산진구 백양순환로 141,2,,129.0411485,35.16818442,,,,,,
